#version,serial,flight,call,time,state,state_name,acceleration,pressure,altitude,height,speed,temperature,drogue_voltage,main_voltage,battery_voltage,accel_x,accel_y,accel_z,gyro_roll,gyro_pitch,gyro_yaw,mag_x,mag_y,mag_z,tilt,pyro,igniter_a,igniter_b,igniter_c,igniter_d,connected,locked,nsat,latitude,longitude,altitude,year,month,day,hour,minute,second,pad_dist,pad_range,pad_az,pad_el,pdop,hdop,vdop,sat01,sat02,sat03,sat04,sat05,sat06,sat07,sat08,sat09,sat10,sat11,sat12,sat13,sat14,sat15,sat16,sat17,sat18,sat19,sat20,sat21,sat22,sat23,sat24,sat25,sat26,sat27,sat28,sat29,sat30,sat31,sat32
6,6583,4,,-0.3,3,   boost,-1.47,86427,1321.28,-0.28,     NaN,33.7,4,3.99,4,0,0,0,0,-0.06,0,0,0,0,    NaN,4.02,0,0,0,0,1,1,9,32.9395158,-106.9122654,1390,2024,6,21,22,56,49,0,0,0,0,1.7,0.9,1.4,0,0,0,0,0,0,0,29,0,37,0,0,0,0,11,0,0,0,0,0,28,0,35,32,0,0,20,29,0,0,0,42
6,6583,4,,-0.29,3,   boost,-0.49,86437,1320.33,-1.23,     NaN,33.7,4,3.99,4,0,0,0,64.27,64.39,0,0,0,0,    NaN,4.02,0,0,0,0,1,1,9,32.9395158,-106.9122654,1390,2024,6,21,22,56,49,0,0,0,0,1.7,0.9,1.4,0,0,0,0,0,0,0,29,0,37,0,0,0,0,11,0,0,0,0,0,28,0,35,32,0,0,20,29,0,0,0,42
6,6583,4,,-0.28,3,   boost,0,86428,1321.18,-0.38,     NaN,33.7,4,3.99,4,0,0,0,64.27,64.39,0,0,0,0,    NaN,4.02,0,0,0,0,1,1,9,32.9395158,-106.9122654,1390,2024,6,21,22,56,49,0,0,0,0,1.7,0.9,1.4,0,0,0,0,0,0,0,29,0,37,0,0,0,0,11,0,0,0,0,0,28,0,35,32,0,0,20,29,0,0,0,42
6,6583,4,,-0.27,3,   boost,-0.49,86426,1321.37,-0.19,     NaN,33.7,4,3.99,4,0,0,0,64.27,64.39,0,0,0,0,    NaN,4.02,0,0,0,0,1,1,9,32.9395158,-106.9122654,1390,2024,6,21,22,56,49,0,0,0,0,1.7,0.9,1.4,0,0,0,0,0,0,0,29,0,37,0,0,0,0,11,0,0,0,0,0,28,0,35,32,0,0,20,29,0,0,0,42
6,6583,4,,-0.26,3,   boost,0,86419,1322.03,0.47,     NaN,33.7,4,3.99,4,0,0,0,64.27,64.39,0,0,0,0,    NaN,4.02,0,0,0,0,1,1,9,32.9395158,-106.9122654,1390,2024,6,21,22,56,49,0,0,0,0,1.7,0.9,1.4,0,0,0,0,0,0,0,29,0,37,0,0,0,0,11,0,0,0,0,0,28,0,35,32,0,0,20,29,0,0,0,42
6,6583,4,,-0.25,3,   boost,1.96,86423,1321.65,0.09,     NaN,33.7,4,3.99,4,0,0,0,64.27,64.39,0,0,0,0,    NaN,4.02,0,0,0,0,1,1,9,32.9395158,-106.9122654,1390,2024,6,21,22,56,49,0,0,0,0,1.7,0.9,1.4,0,0,0,0,0,0,0,29,0,37,0,0,0,0,11,0,0,0,0,0,28,0,35,32,0,0,20,29,0,0,0,42
6,6583,4,,-0.24,3,   boost,0.49,86434,1320.61,-0.95,     NaN,33.6,4,3.99,4,0,0,0,64.27,64.39,0,0,0,0,    NaN,4.02,0,0,0,0,1,1,9,32.9395158,-106.9122654,1390,2024,6,21,22,56,49,0,0,0,0,1.7,0.9,1.4,0,0,0,0,0,0,0,29,0,37,0,0,0,0,11,0,0,0,0,0,28,0,35,32,0,0,20,29,0,0,0,42
6,6583,4,,-0.23,3,   boost,-0.98,86422,1321.75,0.19,     NaN,33.7,4,3.99,4,0,0,0,64.27,64.39,0,0,0,0,    NaN,4.02,0,0,0,0,1,1,9,32.9395158,-106.9122654,1390,2024,6,21,22,56,49,0,0,0,0,1.7,0.9,1.4,0,0,0,0,0,0,0,29,0,37,0,0,0,0,11,0,0,0,0,0,28,0,35,32,0,0,20,29,0,0,0,42
6,6583,4,,-0.22,3,   boost,0.98,86428,1321.18,-0.38,     NaN,33.7,4,3.99,4,0,0,0,64.27,64.39,0,0,0,0,    NaN,4.02,0,0,0,0,1,1,9,32.9395158,-106.9122654,1390,2024,6,21,22,56,49,0,0,0,0,1.7,0.9,1.4,0,0,0,0,0,0,0,29,0,37,0,0,0,0,11,0,0,0,0,0,28,0,35,32,0,0,20,29,0,0,0,42
6,6583,4,,-0.21,3,   boost,1.47,86429,1321.09,-0.47,     NaN,33.7,4,3.99,4,0,0,0,64.27,64.39,0,0,0,0,    NaN,4.02,0,0,0,0,1,1,9,32.9395158,-106.9122654,1390,2024,6,21,22,56,49,0,0,0,0,1.7,0.9,1.4,0,0,0,0,0,0,0,29,0,37,0,0,0,0,11,0,0,0,0,0,28,0,35,32,0,0,20,29,0,0,0,42
6,6583,4,,-0.2,3,   boost,-0.49,86427,1321.28,-0.28,     NaN,33.7,4,3.99,4,0,0,0,64.27,64.39,0,0,0,0,    NaN,4.02,0,0,0,0,1,1,9,32.9395158,-106.9122654,1390,2024,6,21,22,56,49,0,0,0,0,1.7,0.9,1.4,0,0,0,0,0,0,0,29,0,37,0,0,0,0,11,0,0,0,0,0,28,0,35,32,0,0,20,29,0,0,0,42
6,6583,4,,-0.19,3,   boost,-0.49,86415,1322.41,0.85,     NaN,33.7,4,3.99,4,0,0,0,64.27,64.39,0,0,0,0,    NaN,4.02,0,0,0,0,1,1,9,32.9395158,-106.9122654,1390,2024,6,21,22,56,49,0,0,0,0,1.7,0.9,1.4,0,0,0,0,0,0,0,29,0,37,0,0,0,0,11,0,0,0,0,0,28,0,35,32,0,0,20,29,0,0,0,42
6,6583,4,,-0.18,3,   boost,-0.49,86433,1320.71,-0.85,     NaN,33.7,4,3.99,4,0,0,0,64.27,64.39,0,0,0,0,    NaN,4.02,0,0,0,0,1,1,9,32.9395158,-106.9122654,1390,2024,6,21,22,56,49,0,0,0,0,1.7,0.9,1.4,0,0,0,0,0,0,0,29,0,37,0,0,0,0,11,0,0,0,0,0,28,0,35,32,0,0,20,29,0,0,0,42
6,6583,4,,-0.17,3,   boost,-0.49,86424,1321.56,0,     NaN,33.7,4,3.99,4,0,0,0,64.27,64.39,0,0,0,0,    NaN,4.02,0,0,0,0,1,1,9,32.9395158,-106.9122654,1390,2024,6,21,22,56,49,0,0,0,0,1.7,0.9,1.4,0,0,0,0,0,0,0,29,0,37,0,0,0,0,11,0,0,0,0,0,28,0,35,32,0,0,20,29,0,0,0,42
6,6583,4,,-0.16,3,   boost,-1.47,86429,1321.09,-0.47,     NaN,33.7,4,3.99,4,0,0,0,64.27,64.39,0,0,0,0,    NaN,4.02,0,0,0,0,1,1,9,32.9395158,-106.9122654,1390,2024,6,21,22,56,49,0,0,0,0,1.7,0.9,1.4,0,0,0,0,0,0,0,29,0,37,0,0,0,0,11,0,0,0,0,0,28,0,35,32,0,0,20,29,0,0,0,42
6,6583,4,,-0.15,3,   boost,1.47,86429,1321.09,-0.47,     NaN,33.7,4,3.99,4,0,0,0,64.27,64.39,0,0,0,0,    NaN,4.02,0,0,0,0,1,1,9,32.9395158,-106.9122654,1390,2024,6,21,22,56,49,0,0,0,0,1.7,0.9,1.4,0,0,0,0,0,0,0,29,0,37,0,0,0,0,11,0,0,0,0,0,28,0,35,32,0,0,20,29,0,0,0,42
6,6583,4,,-0.14,3,   boost,-0.49,86427,1321.28,-0.28,     NaN,33.7,4,3.99,4,0,0,0,64.27,64.39,0,0,0,0,    NaN,4.02,0,0,0,0,1,1,9,32.9395158,-106.9122654,1390,2024,6,21,22,56,49,0,0,0,0,1.7,0.9,1.4,0,0,0,0,0,0,0,29,0,37,0,0,0,0,11,0,0,0,0,0,28,0,35,32,0,0,20,29,0,0,0,42
6,6583,4,,-0.13,3,   boost,0.49,86425,1321.47,-0.09,     NaN,33.7,4,3.99,4,0,0,0,64.27,64.39,0,0,0,0,    NaN,4.02,0,0,0,0,1,1,9,32.9395158,-106.9122654,1390,2024,6,21,22,56,49,0,0,0,0,1.7,0.9,1.4,0,0,0,0,0,0,0,29,0,37,0,0,0,0,11,0,0,0,0,0,28,0,35,32,0,0,20,29,0,0,0,42
6,6583,4,,-0.12,3,   boost,-2.45,86422,1321.75,0.19,     NaN,33.7,4,3.99,4,0,0,0,64.27,64.39,0,0,0,0,    NaN,4.02,0,0,0,0,1,1,9,32.9395158,-106.9122654,1390,2024,6,21,22,56,49,0,0,0,0,1.7,0.9,1.4,0,0,0,0,0,0,0,29,0,37,0,0,0,0,11,0,0,0,0,0,28,0,35,32,0,0,20,29,0,0,0,42
6,6583,4,,-0.11,3,   boost,1.47,86421,1321.84,0.28,     NaN,33.7,4,3.99,4,0,0,0,64.27,64.39,0,0,0,0,    NaN,4.02,0,0,0,0,1,1,9,32.9395158,-106.9122654,1390,2024,6,21,22,56,49,0,0,0,0,1.7,0.9,1.4,0,0,0,0,0,0,0,29,0,37,0,0,0,0,11,0,0,0,0,0,28,0,35,32,0,0,20,29,0,0,0,42
6,6583,4,,-0.1,3,   boost,-0.98,86434,1320.61,-0.95,     NaN,33.7,4,3.99,4,0,0,0,64.27,64.39,0,0,0,0,    NaN,4.02,0,0,0,0,1,1,9,32.9395158,-106.9122654,1390,2024,6,21,22,56,49,0,0,0,0,1.7,0.9,1.4,0,0,0,0,0,0,0,29,0,37,0,0,0,0,11,0,0,0,0,0,28,0,35,32,0,0,20,29,0,0,0,42
6,6583,4,,-0.09,3,   boost,3.92,86435,1320.52,-1.04,     NaN,33.7,4,3.99,4,0,0,0,64.27,64.39,0,0,0,0,    NaN,4.02,0,0,0,0,1,1,9,32.9395158,-106.9122654,1390,2024,6,21,22,56,49,0,0,0,0,1.7,0.9,1.4,0,0,0,0,0,0,0,29,0,37,0,0,0,0,11,0,0,0,0,0,28,0,35,32,0,0,20,29,0,0,0,42
6,6583,4,,-0.08,3,   boost,1.96,86441,1319.95,-1.61,     NaN,33.7,4,3.99,4,0,0,0,64.27,64.39,0,0,0,0,    NaN,4.02,0,0,0,0,1,1,9,32.9395158,-106.9122654,1390,2024,6,21,22,56,49,0,0,0,0,1.7,0.9,1.4,0,0,0,0,0,0,0,29,0,37,0,0,0,0,11,0,0,0,0,0,28,0,35,32,0,0,20,29,0,0,0,42
6,6583,4,,-0.07,3,   boost,76.98,86426,1321.37,-0.19,     NaN,33.7,4,3.99,4,0,0,0,64.27,64.39,0,0,0,0,    NaN,4.02,0,0,0,0,1,1,9,32.9395158,-106.9122654,1390,2024,6,21,22,56,49,0,0,0,0,1.7,0.9,1.4,0,0,0,0,0,0,0,29,0,37,0,0,0,0,11,0,0,0,0,0,28,0,35,32,0,0,20,29,0,0,0,42
6,6583,4,,-0.06,3,   boost,62.76,86541,1310.49,-11.07,     NaN,33.7,4,3.99,4,0,0,0,64.27,64.39,0,0,0,0,    NaN,4.02,0,0,0,0,1,1,9,32.9395158,-106.9122654,1390,2024,6,21,22,56,49,0,0,0,0,1.7,0.9,1.4,0,0,0,0,0,0,0,29,0,37,0,0,0,0,11,0,0,0,0,0,28,0,35,32,0,0,20,29,0,0,0,42
6,6583,4,,-0.05,3,   boost,89.24,86415,1322.41,0.85,     NaN,33.7,4,3.99,4,0,0,0,64.27,64.39,0,0,0,0,    NaN,4.02,0,0,0,0,1,1,9,32.9395158,-106.9122654,1390,2024,6,21,22,56,49,0,0,0,0,1.7,0.9,1.4,0,0,0,0,0,0,0,29,0,37,0,0,0,0,11,0,0,0,0,0,28,0,35,32,0,0,20,29,0,0,0,42
6,6583,4,,-0.04,3,   boost,92.67,86447,1319.38,-2.18,     NaN,33.7,4,3.99,4,0,0,0,64.27,64.39,0,0,0,0,    NaN,4.02,0,0,0,0,1,1,9,32.9395158,-106.9122654,1390,2024,6,21,22,56,49,0,0,0,0,1.7,0.9,1.4,0,0,0,0,0,0,0,29,0,37,0,0,0,0,11,0,0,0,0,0,28,0,35,32,0,0,20,29,0,0,0,42
6,6583,4,,-0.03,3,   boost,87.77,86417,1322.22,0.66,     NaN,33.7,4,3.99,4,0,0,0,64.27,64.39,0,0,0,0,    NaN,4.02,0,0,0,0,1,1,9,32.9395158,-106.9122654,1390,2024,6,21,22,56,49,0,0,0,0,1.7,0.9,1.4,0,0,0,0,0,0,0,29,0,37,0,0,0,0,11,0,0,0,0,0,28,0,35,32,0,0,20,29,0,0,0,42
6,6583,4,,-0.02,3,   boost,85.32,86415,1322.41,0.85,     NaN,33.7,4,3.99,4,0,0,0,64.27,64.39,0,0,0,0,    NaN,4.02,0,0,0,0,1,1,9,32.9395158,-106.9122654,1390,2024,6,21,22,56,49,0,0,0,0,1.7,0.9,1.4,0,0,0,0,0,0,0,29,0,37,0,0,0,0,11,0,0,0,0,0,28,0,35,32,0,0,20,29,0,0,0,42
6,6583,4,,-0.01,3,   boost,84.34,86413,1322.6,1.04,     NaN,33.7,4,3.99,4,0,0,0,64.27,64.39,0,0,0,0,    NaN,4.02,0,0,0,0,1,1,9,32.9395158,-106.9122654,1390,2024,6,21,22,56,49,0,0,0,0,1.7,0.9,1.4,0,0,0,0,0,0,0,29,0,37,0,0,0,0,11,0,0,0,0,0,28,0,35,32,0,0,20,29,0,0,0,42
6,6583,4,,0,3,   boost,84.34,86414,1322.51,0.95,     NaN,33.7,4,3.99,4,0,0,0,64.27,64.39,0,0,0,0,    NaN,4.02,0,0,0,0,1,1,9,32.9395158,-106.9122654,1390,2024,6,21,22,56,49,0,0,0,0,1.7,0.9,1.4,0,0,0,0,0,0,0,29,0,37,0,0,0,0,11,0,0,0,0,0,28,0,35,32,0,0,20,29,0,0,0,42
6,6583,4,,0,3,   boost,84.34,86414,1322.51,0.95,     NaN,33.7,4,3.99,4,0,0,0,64.27,64.39,0,0,0,0,    NaN,4.02,0,0,0,0,1,1,9,32.9395158,-106.9122654,1390,2024,6,21,22,56,49,0,0,0,0,1.7,0.9,1.4,0,0,0,0,0,0,0,29,0,37,0,0,0,0,11,0,0,0,0,0,28,0,35,32,0,0,20,29,0,0,0,42
6,6583,4,,0,3,   boost,84.34,86414,1322.51,0.95,     NaN,33.7,4,3.99,4,0,0,0,64.27,64.39,0,0,0,0,    NaN,4.02,0,0,0,0,1,1,9,32.9395158,-106.9122654,1390,2024,6,21,22,56,49,0,0,0,0,1.7,0.9,1.4,0,0,0,0,0,0,0,29,0,37,0,0,0,0,11,0,0,0,0,0,28,0,35,32,0,0,20,29,0,0,0,42
6,6583,4,,0,3,   boost,84.34,86414,1322.51,0.95,     NaN,33.7,4,3.99,4,0,0,0,64.27,64.39,0,0,0,0,    NaN,4.02,0,0,0,0,1,1,9,32.9395158,-106.9122654,1390,2024,6,21,22,56,49,0,0,0,0,1.7,0.9,1.4,0,0,0,0,0,0,0,29,0,37,0,0,0,0,11,0,0,0,0,0,28,0,35,32,0,0,20,29,0,0,0,42
6,6583,4,,0,3,   boost,84.34,86414,1322.51,0.95,     NaN,33.7,4,3.99,4,0,0,0,64.27,64.39,0,0,0,0,    NaN,4.02,0,0,0,0,1,1,9,32.9395158,-106.9122654,1390,2024,6,21,22,56,49,0,0,0,0,1.7,0.9,1.4,0,0,0,0,0,0,0,29,0,37,0,0,0,0,11,0,0,0,0,0,28,0,35,32,0,0,20,29,0,0,0,42
6,6583,4,,0,3,   boost,84.34,86414,1322.51,0.95,     NaN,33.7,4,3.99,4,0,0,0,64.27,64.39,0,0,0,0,    NaN,4.02,0,0,0,0,1,1,9,32.9395158,-106.9122654,1390,2024,6,21,22,56,49,0,0,0,0,1.7,0.9,1.4,0,0,0,0,0,0,0,29,0,37,0,0,0,0,11,0,0,0,0,0,28,0,35,32,0,0,20,29,0,0,0,42
6,6583,4,,0,3,   boost,84.34,86414,1322.51,0.95,     NaN,33.7,4,3.99,4,0,0,0,64.27,64.39,0,0,0,0,    NaN,4.02,0,0,0,0,1,1,9,32.9395158,-106.9122654,1390,2024,6,21,22,56,49,0,0,0,0,1.7,0.9,1.4,0,0,0,0,0,0,0,29,0,37,0,0,0,0,11,0,0,0,0,0,28,0,35,32,0,0,20,29,0,0,0,42
6,6583,4,,0,3,   boost,84.34,86414,1322.51,0.95,     NaN,33.7,4,3.99,4,0,0,0,64.27,64.39,0,0,0,0,    NaN,4.02,0,0,0,0,1,1,9,32.9395158,-106.9122654,1390,2024,6,21,22,56,49,0,0,0,0,1.7,0.9,1.4,0,0,0,0,0,0,0,29,0,37,0,0,0,0,11,0,0,0,0,0,28,0,35,32,0,0,20,29,0,0,0,42
6,6583,4,,0,3,   boost,84.34,86414,1322.51,0.95,     NaN,33.7,4,3.99,4,0,0,0,64.27,64.39,0,0,0,0,    NaN,4.02,0,0,0,0,1,1,9,32.9395158,-106.9122654,1390,2024,6,21,22,56,49,0,0,0,0,1.7,0.9,1.4,0,0,0,0,0,0,0,29,0,37,0,0,0,0,11,0,0,0,0,0,28,0,35,32,0,0,20,29,0,0,0,42
6,6583,4,,0,3,   boost,84.34,86414,1322.51,0.95,     NaN,33.7,4,3.99,4,0,0,0,64.27,64.39,0,0,0,0,    NaN,4.02,0,0,0,0,1,1,9,32.9395158,-106.9122654,1390,2024,6,21,22,56,49,0,0,0,0,1.7,0.9,1.4,0,0,0,0,0,0,0,29,0,37,0,0,0,0,11,0,0,0,0,0,28,0,35,32,0,0,20,29,0,0,0,42
6,6583,4,,0,3,   boost,84.34,86414,1322.51,0.95,     NaN,33.7,4,3.99,4,0,0,0,64.27,64.39,0,0,0,0,    NaN,4.02,0,0,0,0,1,1,9,32.9395158,-106.9122654,1390,2024,6,21,22,56,49,0,0,0,0,1.7,0.9,1.4,0,0,0,0,0,0,0,29,0,37,0,0,0,0,11,0,0,0,0,0,28,0,35,32,0,0,20,29,0,0,0,42
6,6583,4,,0,3,   boost,84.34,86414,1322.51,0.95,     NaN,33.7,4,3.99,4,0,0,0,64.27,64.39,0,0,0,0,    NaN,4.02,0,0,0,0,1,1,9,32.9395158,-106.9122654,1390,2024,6,21,22,56,49,0,0,0,0,1.7,0.9,1.4,0,0,0,0,0,0,0,29,0,37,0,0,0,0,11,0,0,0,0,0,28,0,35,32,0,0,20,29,0,0,0,42
6,6583,4,,0,3,   boost,84.34,86414,1322.51,0.95,     NaN,33.7,4,3.99,4,0,0,0,64.27,64.39,0,0,0,0,    NaN,4.02,0,0,0,0,1,1,9,32.9395158,-106.9122654,1390,2024,6,21,22,56,49,0,0,0,0,1.7,0.9,1.4,0,0,0,0,0,0,0,29,0,37,0,0,0,0,11,0,0,0,0,0,28,0,35,32,0,0,20,29,0,0,0,42
6,6583,4,,0,3,   boost,84.34,86414,1322.51,0.95,     NaN,33.7,4,3.99,4,0,0,0,64.27,64.39,0,0,0,0,    NaN,4.02,0,0,0,0,1,1,9,32.9395158,-106.9122654,1390,2024,6,21,22,56,49,0,0,0,0,1.7,0.9,1.4,0,0,0,0,0,0,0,29,0,37,0,0,0,0,11,0,0,0,0,0,28,0,35,32,0,0,20,29,0,0,0,42
6,6583,4,,0,3,   boost,84.34,86414,1322.51,0.95,     NaN,33.7,4,3.99,4,0,0,0,64.27,64.39,0,0,0,0,    NaN,4.02,0,0,0,0,1,1,9,32.9395158,-106.9122654,1390,2024,6,21,22,56,49,0,0,0,0,1.7,0.9,1.4,0,0,0,0,0,0,0,29,0,37,0,0,0,0,11,0,0,0,0,0,28,0,35,32,0,0,20,29,0,0,0,42
6,6583,4,,0,3,   boost,84.34,86414,1322.51,0.95,     NaN,33.7,4,3.99,4,0,0,0,64.27,64.39,0,0,0,0,    NaN,4.02,0,0,0,0,1,1,9,32.9395158,-106.9122654,1390,2024,6,21,22,56,49,0,0,0,0,1.7,0.9,1.4,0,0,0,0,0,0,0,29,0,37,0,0,0,0,11,0,0,0,0,0,28,0,35,32,0,0,20,29,0,0,0,42
6,6583,4,,0,3,   boost,84.34,86414,1322.51,0.95,     NaN,33.7,4,3.99,4,0,0,0,64.27,64.39,0,0,0,0,    NaN,4.02,0,0,0,0,1,1,9,32.9395158,-106.9122654,1390,2024,6,21,22,56,49,0,0,0,0,1.7,0.9,1.4,0,0,0,0,0,0,0,29,0,37,0,0,0,0,11,0,0,0,0,0,28,0,35,32,0,0,20,29,0,0,0,42
6,6583,4,,0,3,   boost,84.34,86414,1322.51,0.95,     NaN,33.7,4,3.99,4,0,0,0,64.27,64.39,0,0,0,0,    NaN,4.02,0,0,0,0,1,1,9,32.9395158,-106.9122654,1390,2024,6,21,22,56,49,0,0,0,0,1.7,0.9,1.4,0,0,0,0,0,0,0,29,0,37,0,0,0,0,11,0,0,0,0,0,28,0,35,32,0,0,20,29,0,0,0,42
6,6583,4,,0,3,   boost,84.34,86414,1322.51,0.95,     NaN,33.7,4,3.99,4,0,0,0,64.27,64.39,0,0,0,0,    NaN,4.02,0,0,0,0,1,1,9,32.9395158,-106.9122654,1390,2024,6,21,22,56,49,0,0,0,0,1.7,0.9,1.4,0,0,0,0,0,0,0,29,0,37,0,0,0,0,11,0,0,0,0,0,28,0,35,32,0,0,20,29,0,0,0,42
6,6583,4,,0,3,   boost,84.34,86414,1322.51,0.95,     NaN,33.7,4,3.99,4,0,0,0,64.27,64.39,0,0,0,0,    NaN,4.02,0,0,0,0,1,1,9,32.9395158,-106.9122654,1390,2024,6,21,22,56,49,0,0,0,0,1.7,0.9,1.4,0,0,0,0,0,0,0,29,0,37,0,0,0,0,11,0,0,0,0,0,28,0,35,32,0,0,20,29,0,0,0,42
6,6583,4,,0,3,   boost,84.34,86414,1322.51,0.95,     NaN,33.7,4,3.99,4,0,0,0,64.27,64.39,0,0,0,0,    NaN,4.02,0,0,0,0,1,1,9,32.9395158,-106.9122654,1390,2024,6,21,22,56,49,0,0,0,0,1.7,0.9,1.4,0,0,0,0,0,0,0,29,0,37,0,0,0,0,11,0,0,0,0,0,28,0,35,32,0,0,20,29,0,0,0,42
6,6583,4,,0,3,   boost,84.34,86414,1322.51,0.95,     NaN,33.7,4,3.99,4,0,0,0,64.27,64.39,0,0,0,0,    NaN,4.02,0,0,0,0,1,1,9,32.9395158,-106.9122654,1390,2024,6,21,22,56,49,0,0,0,0,1.7,0.9,1.4,0,0,0,0,0,0,0,29,0,37,0,0,0,0,11,0,0,0,0,0,28,0,35,32,0,0,20,29,0,0,0,42
6,6583,4,,0,3,   boost,84.34,86414,1322.51,0.95,     NaN,33.7,4,3.99,4,0,0,0,64.27,64.39,0,0,0,0,    NaN,4.02,0,0,0,0,1,1,9,32.9395158,-106.9122654,1390,2024,6,21,22,56,49,0,0,0,0,1.7,0.9,1.4,0,0,0,0,0,0,0,29,0,37,0,0,0,0,11,0,0,0,0,0,28,0,35,32,0,0,20,29,0,0,0,42
6,6583,4,,0,3,   boost,84.34,86414,1322.51,0.95,     NaN,33.7,4,3.99,4,0,0,0,64.27,64.39,0,0,0,0,    NaN,4.02,0,0,0,0,1,1,9,32.9395158,-106.9122654,1390,2024,6,21,22,56,49,0,0,0,0,1.7,0.9,1.4,0,0,0,0,0,0,0,29,0,37,0,0,0,0,11,0,0,0,0,0,28,0,35,32,0,0,20,29,0,0,0,42
6,6583,4,,0,3,   boost,84.34,86414,1322.51,0.95,     NaN,33.7,4,3.99,4,0,0,0,64.27,64.39,0,0,0,0,    NaN,4.02,0,0,0,0,1,1,9,32.9395158,-106.9122654,1390,2024,6,21,22,56,49,0,0,0,0,1.7,0.9,1.4,0,0,0,0,0,0,0,29,0,37,0,0,0,0,11,0,0,0,0,0,28,0,35,32,0,0,20,29,0,0,0,42
6,6583,4,,0,3,   boost,84.34,86414,1322.51,0.95,     NaN,33.7,4,3.99,4,0,0,0,64.27,64.39,0,0,0,0,    NaN,4.02,0,0,0,0,1,1,9,32.9395158,-106.9122654,1390,2024,6,21,22,56,49,0,0,0,0,1.7,0.9,1.4,0,0,0,0,0,0,0,29,0,37,0,0,0,0,11,0,0,0,0,0,28,0,35,32,0,0,20,29,0,0,0,42
6,6583,4,,0,3,   boost,84.34,86414,1322.51,0.95,     NaN,33.7,4,3.99,4,0,0,0,64.27,64.39,0,0,0,0,    NaN,4.02,0,0,0,0,1,1,9,32.9395158,-106.9122654,1390,2024,6,21,22,56,49,0,0,0,0,1.7,0.9,1.4,0,0,0,0,0,0,0,29,0,37,0,0,0,0,11,0,0,0,0,0,28,0,35,32,0,0,20,29,0,0,0,42
6,6583,4,,0,3,   boost,84.34,86414,1322.51,0.95,     NaN,33.7,4,3.99,4,0,0,0,64.27,64.39,0,0,0,0,    NaN,4.02,0,0,0,0,1,1,9,32.9395158,-106.9122654,1390,2024,6,21,22,56,49,0,0,0,0,1.7,0.9,1.4,0,0,0,0,0,0,0,29,0,37,0,0,0,0,11,0,0,0,0,0,28,0,35,32,0,0,20,29,0,0,0,42
6,6583,4,,0,3,   boost,84.34,86414,1322.51,0.95,     NaN,33.7,4,3.99,4,0,0,0,64.27,64.39,0,0,0,0,    NaN,4.02,0,0,0,0,1,1,9,32.9395158,-106.9122654,1390,2024,6,21,22,56,49,0,0,0,0,1.7,0.9,1.4,0,0,0,0,0,0,0,29,0,37,0,0,0,0,11,0,0,0,0,0,28,0,35,32,0,0,20,29,0,0,0,42
6,6583,4,,0,3,   boost,84.34,86414,1322.51,0.95,     NaN,33.7,4,3.99,4,0,0,0,64.27,64.39,0,0,0,0,    NaN,4.02,0,0,0,0,1,1,9,32.9395158,-106.9122654,1390,2024,6,21,22,56,49,0,0,0,0,1.7,0.9,1.4,0,0,0,0,0,0,0,29,0,37,0,0,0,0,11,0,0,0,0,0,28,0,35,32,0,0,20,29,0,0,0,42
6,6583,4,,0,3,   boost,84.34,86414,1322.51,0.95,     NaN,33.7,4,3.99,4,0,0,0,64.27,64.39,0,0,0,0,    NaN,4.02,0,0,0,0,1,1,9,32.9395158,-106.9122654,1390,2024,6,21,22,56,49,0,0,0,0,1.7,0.9,1.4,0,0,0,0,0,0,0,29,0,37,0,0,0,0,11,0,0,0,0,0,28,0,35,32,0,0,20,29,0,0,0,42
6,6583,4,,0,3,   boost,84.34,86414,1322.51,0.95,     NaN,33.7,4,3.99,4,0,0,0,64.27,64.39,0,0,0,0,    NaN,4.02,0,0,0,0,1,1,9,32.9395158,-106.9122654,1390,2024,6,21,22,56,49,0,0,0,0,1.7,0.9,1.4,0,0,0,0,0,0,0,29,0,37,0,0,0,0,11,0,0,0,0,0,28,0,35,32,0,0,20,29,0,0,0,42
6,6583,4,,0,3,   boost,84.34,86414,1322.51,0.95,     NaN,33.7,4,3.99,4,0,0,0,64.27,64.39,0,0,0,0,    NaN,4.02,0,0,0,0,1,1,9,32.9395158,-106.9122654,1390,2024,6,21,22,56,49,0,0,0,0,1.7,0.9,1.4,0,0,0,0,0,0,0,29,0,37,0,0,0,0,11,0,0,0,0,0,28,0,35,32,0,0,20,29,0,0,0,42
6,6583,4,,0,3,   boost,84.34,86414,1322.51,0.95,     NaN,33.7,4,3.99,4,0,0,0,64.27,64.39,0,0,0,0,    NaN,4.02,0,0,0,0,1,1,9,32.9395158,-106.9122654,1390,2024,6,21,22,56,49,0,0,0,0,1.7,0.9,1.4,0,0,0,0,0,0,0,29,0,37,0,0,0,0,11,0,0,0,0,0,28,0,35,32,0,0,20,29,0,0,0,42
6,6583,4,,0,3,   boost,84.34,86414,1322.51,0.95,     NaN,33.7,4,3.99,4,0,0,0,64.27,64.39,0,0,0,0,    NaN,4.02,0,0,0,0,1,1,9,32.9395158,-106.9122654,1390,2024,6,21,22,56,49,0,0,0,0,1.7,0.9,1.4,0,0,0,0,0,0,0,29,0,37,0,0,0,0,11,0,0,0,0,0,28,0,35,32,0,0,20,29,0,0,0,42
6,6583,4,,0.01,3,   boost,84.34,86419,1322.03,0.47,     NaN,33.7,4,3.99,4,0,0,0,64.27,64.39,0,0,0,0,    NaN,4.02,0,0,0,0,1,1,9,32.9395158,-106.9122654,1390,2024,6,21,22,56,49,0,0,0,0,1.7,0.9,1.4,0,0,0,0,0,0,0,29,0,37,0,0,0,0,11,0,0,0,0,0,28,0,35,32,0,0,20,29,0,0,0,42
6,6583,4,,0.01,3,   boost,84.34,86419,1322.03,0.47,     NaN,33.7,4,3.99,4,0,0,0,64.27,64.39,0,0,0,0,    NaN,4.02,0,0,0,0,1,1,9,32.9395158,-106.9122654,1390,2024,6,21,22,56,49,0,0,0,0,1.7,0.9,1.4,0,0,0,0,0,0,0,29,0,37,0,0,0,0,11,0,0,0,0,0,28,0,35,32,0,0,20,29,0,0,0,42
6,6583,4,,0.02,3,   boost,83.85,86437,1320.33,-1.23,     NaN,33.7,4,4,4,0,0,0,64.27,64.39,0,0,0,0,    NaN,4.01,0,0,0.03,0,1,1,9,32.9395158,-106.9122654,1390,2024,6,21,22,56,49,0,0,0,0,1.7,0.9,1.4,0,0,0,0,0,0,0,29,0,37,0,0,0,0,11,0,0,0,0,0,28,0,35,32,0,0,20,29,0,0,0,42
6,6583,4,,0.02,3,   boost,83.85,86437,1320.33,-1.23,     NaN,33.7,4,4,4,0,0,0,64.27,64.39,0,0,0,0,    NaN,4.01,0,0,0.03,0,1,1,9,32.9395158,-106.9122654,1390,2024,6,21,22,56,49,0,0,0,0,1.7,0.9,1.4,0,0,0,0,0,0,0,29,0,37,0,0,0,0,11,0,0,0,0,0,28,0,35,32,0,0,20,29,0,0,0,42
6,6583,4,,0.03,3,   boost,87.28,86404,1323.45,1.89,     NaN,33.7,4,4,4,0.03,0,0,64.33,64.46,0,0,0,0,    NaN,4.01,0,0,0.03,0,1,1,9,32.9395158,-106.9122654,1390,2024,6,21,22,56,49,0,0,0,0,1.7,0.9,1.4,0,0,0,0,0,0,0,29,0,37,0,0,0,0,11,0,0,0,0,0,28,0,35,32,0,0,20,29,0,0,0,42
6,6583,4,,0.04,3,   boost,84.83,86423,1321.65,0.09,     NaN,33.7,4,4,4,0.03,0,0,64.33,64.46,0,0,0,0,    NaN,4.01,0,0,0.03,0,1,1,9,32.9395158,-106.9122654,1390,2024,6,21,22,56,49,0,0,0,0,1.7,0.9,1.4,0,0,0,0,0,0,0,29,0,37,0,0,0,0,11,0,0,0,0,0,28,0,35,32,0,0,20,29,0,0,0,42
6,6583,4,,0.05,3,   boost,80.41,86405,1323.36,1.8,     NaN,33.7,4,4,4,0.03,0,0,64.33,64.46,0,0,0,0,    NaN,4.01,0,0,0.03,0,1,1,9,32.9395158,-106.9122654,1390,2024,6,21,22,56,49,0,0,0,0,1.7,0.9,1.4,0,0,0,0,0,0,0,29,0,37,0,0,0,0,11,0,0,0,0,0,28,0,35,32,0,0,20,29,0,0,0,42
6,6583,4,,0.06,3,   boost,83.36,86411,1322.79,1.23,     NaN,33.6,4,4,4,0.03,0,0,64.33,64.46,0,0,0,0,    NaN,4.01,0,0,0.03,0,1,1,9,32.9395167,-106.9122671,1390,2024,6,21,22,56,50,0,0,302,0,1.7,0.9,1.4,0,0,0,0,0,0,0,29,0,37,0,0,0,0,10,0,0,0,0,0,28,0,35,33,0,0,20,29,0,0,0,41
6,6583,4,,0.06,3,   boost,83.36,86411,1322.79,1.23,     NaN,33.6,4,4,4,0.03,0,0,64.33,64.46,0,0,0,0,    NaN,4.01,0,0,0.03,0,1,1,9,32.9395167,-106.9122671,1390,2024,6,21,22,56,50,0,0,302,0,1.7,0.9,1.4,0,0,0,0,0,0,0,29,0,37,0,0,0,0,10,0,0,0,0,0,28,0,35,33,0,0,20,29,0,0,0,41
6,6583,4,,0.06,3,   boost,83.36,86411,1322.79,1.23,     NaN,33.6,4,4,4,0.03,0,0,64.33,64.46,0,0,0,0,    NaN,4.01,0,0,0.03,0,1,1,9,32.9395167,-106.9122671,1390,2024,6,21,22,56,50,0,0,302,0,1.7,0.9,1.4,0,0,0,0,0,0,0,29,0,37,0,0,0,0,10,0,0,0,0,0,28,0,35,33,0,0,20,29,0,0,0,41
6,6583,4,,0.07,3,   boost,83.36,86416,1322.32,0.76,     NaN,33.6,4,4,4,0.03,0,0,64.33,64.46,0,0,0,0,    NaN,4.01,0,0,0.03,0,1,1,9,32.9395167,-106.9122671,1390,2024,6,21,22,56,50,0,0,302,0,1.7,0.9,1.4,0,0,0,0,0,0,0,29,0,37,0,0,0,0,10,0,0,0,0,0,28,0,35,33,0,0,20,29,0,0,0,41
6,6583,4,,0.08,3,   boost,83.36,86403,1323.55,1.99,     NaN,33.6,4,4,4,0.03,0,0,64.33,64.46,0,0,0,0,    NaN,4.01,0,0,0.03,0,1,1,9,32.9395167,-106.9122671,1390,2024,6,21,22,56,50,0,0,302,0,1.7,0.9,1.4,0,0,0,0,0,0,0,29,0,37,0,0,0,0,10,0,0,0,0,0,28,0,35,33,0,0,20,29,0,0,0,41
6,6583,4,,0.09,3,   boost,83.36,86430,1320.99,-0.57,     NaN,33.6,4,4,4,0.03,0,0,64.33,64.46,0,0,0,0,    NaN,4.01,0,0,0.03,0,1,1,9,32.9395167,-106.9122671,1390,2024,6,21,22,56,50,0,0,302,0,1.7,0.9,1.4,0,0,0,0,0,0,0,29,0,37,0,0,0,0,10,0,0,0,0,0,28,0,35,33,0,0,20,29,0,0,0,41
6,6583,4,,0.1,3,   boost,83.85,86440,1320.05,-1.51,     NaN,33.7,4,4,4,0.03,0,0,64.33,64.46,0,0,0,0,    NaN,4.01,0,0,0.03,0,1,1,9,32.9395167,-106.9122671,1390,2024,6,21,22,56,50,0,0,302,0,1.7,0.9,1.4,0,0,0,0,0,0,0,29,0,37,0,0,0,0,10,0,0,0,0,0,28,0,35,33,0,0,20,29,0,0,0,41
6,6583,4,,0.11,3,   boost,87.28,86383,1325.44,3.88,     NaN,33.7,4,4,4,0.03,0,0,64.33,64.46,0,0,0,0,    NaN,4.01,0,0,0.03,0,1,1,9,32.9395167,-106.9122671,1390,2024,6,21,22,56,50,0,0,302,0,1.7,0.9,1.4,0,0,0,0,0,0,0,29,0,37,0,0,0,0,10,0,0,0,0,0,28,0,35,33,0,0,20,29,0,0,0,41
6,6583,4,,0.12,3,   boost,85.81,86395,1324.31,2.75,     NaN,33.7,4,4,4,0.03,0,0,64.33,64.46,0,0,0,0,    NaN,4.01,0,0,0.03,0,1,1,9,32.9395167,-106.9122671,1390,2024,6,21,22,56,50,0,0,302,0,1.7,0.9,1.4,0,0,0,0,0,0,0,29,0,37,0,0,0,0,10,0,0,0,0,0,28,0,35,33,0,0,20,29,0,0,0,41
6,6583,4,,0.13,3,   boost,85.32,86404,1323.45,1.89,     NaN,33.6,4,4,4,0.03,0,0,64.33,64.46,0,0,0,0,    NaN,4.01,0,0,0.03,0,1,1,9,32.9395167,-106.9122671,1390,2024,6,21,22,56,50,0,0,302,0,1.7,0.9,1.4,0,0,0,0,0,0,0,29,0,37,0,0,0,0,10,0,0,0,0,0,28,0,35,33,0,0,20,29,0,0,0,41
6,6583,4,,0.14,3,   boost,87.77,86382,1325.54,3.98,     NaN,33.7,4,4,4,0.03,0,0,64.33,64.46,0,0,0,0,    NaN,4.01,0,0,0.03,0,1,1,9,32.9395167,-106.9122671,1390,2024,6,21,22,56,50,0,0,302,0,1.7,0.9,1.4,0,0,0,0,0,0,0,29,0,37,0,0,0,0,10,0,0,0,0,0,28,0,35,33,0,0,20,29,0,0,0,41
6,6583,4,,0.15,3,   boost,85.81,86355,1328.1,6.54,     NaN,33.7,4,4,4,0.03,0,0,64.33,64.46,0,0,0,0,    NaN,4.01,0,0,0.03,0,1,1,9,32.9395167,-106.9122671,1390,2024,6,21,22,56,50,0,0,302,0,1.7,0.9,1.4,0,0,0,0,0,0,0,29,0,37,0,0,0,0,10,0,0,0,0,0,28,0,35,33,0,0,20,29,0,0,0,41
6,6583,4,,0.16,3,   boost,85.81,86390,1324.78,3.22,     NaN,33.7,4,4,4,0.03,0,0,64.33,64.46,0,0,0,0,    NaN,4.01,0,0,0.03,0,1,1,9,32.9395167,-106.9122671,1390,2024,6,21,22,56,50,0,0,302,0,1.7,0.9,1.4,0,0,0,0,0,0,0,29,0,37,0,0,0,0,10,0,0,0,0,0,28,0,35,33,0,0,20,29,0,0,0,41
6,6583,4,,0.17,3,   boost,83.85,86448,1319.29,-2.27,     NaN,33.7,4,4,4,0.03,0,0,64.33,64.46,0,0,0,0,    NaN,4.01,0,0,0.03,0,1,1,9,32.9395167,-106.9122671,1390,2024,6,21,22,56,50,0,0,302,0,1.7,0.9,1.4,0,0,0,0,0,0,0,29,0,37,0,0,0,0,10,0,0,0,0,0,28,0,35,33,0,0,20,29,0,0,0,41
6,6583,4,,0.18,3,   boost,84.34,86377,1326.01,4.45,     NaN,33.7,4,4,4,0.03,0,0,64.33,64.46,0,0,0,0,    NaN,4.01,0,0,0.03,0,1,1,9,32.9395167,-106.9122671,1390,2024,6,21,22,56,50,0,0,302,0,1.7,0.9,1.4,0,0,0,0,0,0,0,29,0,37,0,0,0,0,10,0,0,0,0,0,28,0,35,33,0,0,20,29,0,0,0,41
6,6583,4,,0.19,3,   boost,90.71,86428,1321.18,-0.38,     NaN,33.7,4,4,4,0.03,0,0,64.33,64.46,0,0,0,0,    NaN,4.01,0,0,0.03,0,1,1,9,32.9395167,-106.9122671,1390,2024,6,21,22,56,50,0,0,302,0,1.7,0.9,1.4,0,0,0,0,0,0,0,29,0,37,0,0,0,0,10,0,0,0,0,0,28,0,35,33,0,0,20,29,0,0,0,41
6,6583,4,,0.2,3,   boost,88.26,86395,1324.31,2.75,     NaN,33.7,4,4,4,0.03,0,0,64.33,64.46,0,0,0,0,    NaN,4.01,0,0,0.03,0,1,1,9,32.9395167,-106.9122671,1390,2024,6,21,22,56,50,0,0,302,0,1.7,0.9,1.4,0,0,0,0,0,0,0,29,0,37,0,0,0,0,10,0,0,0,0,0,28,0,35,33,0,0,20,29,0,0,0,41
6,6583,4,,0.21,3,   boost,91.2,86409,1322.98,1.42,     NaN,33.7,4,4,4,0.03,0,0,64.33,64.46,0,0,0,0,    NaN,4.01,0,0,0.03,0,1,1,9,32.9395167,-106.9122671,1390,2024,6,21,22,56,50,0,0,302,0,1.7,0.9,1.4,0,0,0,0,0,0,0,29,0,37,0,0,0,0,10,0,0,0,0,0,28,0,35,33,0,0,20,29,0,0,0,41
6,6583,4,,0.22,3,   boost,86.79,86396,1324.21,2.65,     NaN,33.7,4,4,4,0.03,0,0,64.33,64.46,0,0,0,0,    NaN,4.01,0,0,0.03,0,1,1,9,32.9395167,-106.9122671,1390,2024,6,21,22,56,50,0,0,302,0,1.7,0.9,1.4,0,0,0,0,0,0,0,29,0,37,0,0,0,0,10,0,0,0,0,0,28,0,35,33,0,0,20,29,0,0,0,41
6,6583,4,,0.23,3,   boost,88.75,86386,1325.16,3.6,     NaN,33.7,4,4,4,0.03,0,0,64.33,64.46,0,0,0,0,    NaN,4.01,0,0,0.03,0,1,1,9,32.9395167,-106.9122671,1390,2024,6,21,22,56,50,0,0,302,0,1.7,0.9,1.4,0,0,0,0,0,0,0,29,0,37,0,0,0,0,10,0,0,0,0,0,28,0,35,33,0,0,20,29,0,0,0,41
6,6583,4,,0.24,3,   boost,88.26,86358,1327.81,6.25,     NaN,33.7,4,4,4,0.03,0,0,64.33,64.46,0,0,0,0,    NaN,4.01,0,0,0.03,0,1,1,9,32.9395167,-106.9122671,1390,2024,6,21,22,56,50,0,0,302,0,1.7,0.9,1.4,0,0,0,0,0,0,0,29,0,37,0,0,0,0,10,0,0,0,0,0,28,0,35,33,0,0,20,29,0,0,0,41
6,6583,4,,0.25,3,   boost,89.73,86324,1331.03,9.47,     NaN,33.7,4,4,4,0.03,0,0,64.33,64.46,0,0,0,0,    NaN,4.01,0,0,0.03,0,1,1,9,32.9395167,-106.9122671,1390,2024,6,21,22,56,50,0,0,302,0,1.7,0.9,1.4,0,0,0,0,0,0,0,29,0,37,0,0,0,0,10,0,0,0,0,0,28,0,35,33,0,0,20,29,0,0,0,41
6,6583,4,,0.26,3,   boost,86.79,86385,1325.25,3.69,     NaN,33.7,4,4,4,0.03,0,0,64.33,64.46,0,0,0,0,    NaN,4.01,0,0,0.03,0,1,1,9,32.9395167,-106.9122671,1390,2024,6,21,22,56,50,0,0,302,0,1.7,0.9,1.4,0,0,0,0,0,0,0,29,0,37,0,0,0,0,10,0,0,0,0,0,28,0,35,33,0,0,20,29,0,0,0,41
6,6583,4,,0.27,3,   boost,89.24,86362,1327.43,5.87,     NaN,33.7,4,4,4,0.03,0,0,64.33,64.46,0,0,0,0,    NaN,4.01,0,0,0.03,0,1,1,9,32.9395167,-106.9122671,1390,2024,6,21,22,56,50,0,0,302,0,1.7,0.9,1.4,0,0,0,0,0,0,0,29,0,37,0,0,0,0,10,0,0,0,0,0,28,0,35,33,0,0,20,29,0,0,0,41
6,6583,4,,0.28,3,   boost,89.24,86369,1326.77,5.21,     NaN,33.7,4,4,4,0.03,0,0,64.33,64.46,0,0,0,0,    NaN,4.01,0,0,0.03,0,1,1,9,32.9395167,-106.9122671,1390,2024,6,21,22,56,50,0,0,302,0,1.7,0.9,1.4,0,0,0,0,0,0,0,29,0,37,0,0,0,0,10,0,0,0,0,0,28,0,35,33,0,0,20,29,0,0,0,41
6,6583,4,,0.29,3,   boost,90.71,86339,1329.61,8.05,     NaN,33.6,4,4,4,0.03,0,0,64.33,64.46,0,0,0,0,    NaN,4.01,0,0,0.03,0,1,1,9,32.9395167,-106.9122671,1390,2024,6,21,22,56,50,0,0,302,0,1.7,0.9,1.4,0,0,0,0,0,0,0,29,0,37,0,0,0,0,10,0,0,0,0,0,28,0,35,33,0,0,20,29,0,0,0,41
6,6583,4,,0.3,3,   boost,91.2,86331,1330.37,8.81,     NaN,33.7,4,4,4,0.03,0,0,64.33,64.46,0,0,0,0,    NaN,4.01,0,0,0.03,0,1,1,9,32.9395167,-106.9122671,1390,2024,6,21,22,56,50,0,0,302,0,1.7,0.9,1.4,0,0,0,0,0,0,0,29,0,37,0,0,0,0,10,0,0,0,0,0,28,0,35,33,0,0,20,29,0,0,0,41
6,6583,4,,0.31,3,   boost,86.79,86347,1328.85,7.29,     NaN,33.7,4,4,4,0.03,0,0,64.33,64.46,0,0,0,0,    NaN,4.01,0,0,0.03,0,1,1,9,32.9395167,-106.9122671,1390,2024,6,21,22,56,50,0,0,302,0,1.7,0.9,1.4,0,0,0,0,0,0,0,29,0,37,0,0,0,0,10,0,0,0,0,0,28,0,35,33,0,0,20,29,0,0,0,41
6,6583,4,,0.32,3,   boost,88.75,86344,1329.14,7.58,     NaN,33.7,4,4,4,0.03,0,0,64.33,64.46,0,0,0,0,    NaN,4.01,0,0,0.03,0,1,1,9,32.9395167,-106.9122671,1390,2024,6,21,22,56,50,0,0,302,0,1.7,0.9,1.4,0,0,0,0,0,0,0,29,0,37,0,0,0,0,10,0,0,0,0,0,28,0,35,33,0,0,20,29,0,0,0,41
6,6583,4,,0.33,3,   boost,91.69,86332,1330.27,8.71,     NaN,33.7,4,4,4,0.03,0,0,64.33,64.46,0,0,0,0,    NaN,4.01,0,0,0.03,0,1,1,9,32.9395167,-106.9122671,1390,2024,6,21,22,56,50,0,0,302,0,1.7,0.9,1.4,0,0,0,0,0,0,0,29,0,37,0,0,0,0,10,0,0,0,0,0,28,0,35,33,0,0,20,29,0,0,0,41
6,6583,4,,0.34,3,   boost,91.69,86336,1329.9,8.34,     NaN,33.7,4,3.99,3.99,0.03,0,0,64.33,64.46,0,0,0,0,    NaN,4.01,0,0,0,0,1,1,9,32.9395167,-106.9122671,1390,2024,6,21,22,56,50,0,0,302,0,1.7,0.9,1.4,0,0,0,0,0,0,0,29,0,37,0,0,0,0,10,0,0,0,0,0,28,0,35,33,0,0,20,29,0,0,0,41
6,6583,4,,0.34,3,   boost,91.69,86336,1329.9,8.34,     NaN,33.7,4,3.99,3.99,0.03,0,0,64.33,64.46,0,0,0,0,    NaN,4.01,0,0,0,0,1,1,9,32.9395167,-106.9122671,1390,2024,6,21,22,56,50,0,0,302,0,1.7,0.9,1.4,0,0,0,0,0,0,0,29,0,37,0,0,0,0,10,0,0,0,0,0,28,0,35,33,0,0,20,29,0,0,0,41
6,6583,4,,0.35,3,   boost,91.2,86309,1332.45,10.89,     NaN,33.7,4,3.99,3.99,0,0,0,64.21,64.39,0,0,0,0,    NaN,4.01,0,0,0,0,1,1,9,32.9395167,-106.9122671,1390,2024,6,21,22,56,50,0,0,302,0,1.7,0.9,1.4,0,0,0,0,0,0,0,29,0,37,0,0,0,0,10,0,0,0,0,0,28,0,35,33,0,0,20,29,0,0,0,41
6,6583,4,,0.36,3,   boost,92.67,86295,1333.78,12.22,     NaN,33.7,4,3.99,3.99,0,0,0,64.21,64.39,0,0,0,0,    NaN,4.01,0,0,0,0,1,1,9,32.9395167,-106.9122671,1390,2024,6,21,22,56,50,0,0,302,0,1.7,0.9,1.4,0,0,0,0,0,0,0,29,0,37,0,0,0,0,10,0,0,0,0,0,28,0,35,33,0,0,20,29,0,0,0,41
6,6583,4,,0.37,3,   boost,91.69,86303,1333.02,11.46,     NaN,33.7,4,3.99,3.99,0,0,0,64.21,64.39,0,0,0,0,    NaN,4.01,0,0,0,0,1,1,9,32.9395167,-106.9122671,1390,2024,6,21,22,56,50,0,0,302,0,1.7,0.9,1.4,0,0,0,0,0,0,0,29,0,37,0,0,0,0,10,0,0,0,0,0,28,0,35,33,0,0,20,29,0,0,0,41
6,6583,4,,0.38,3,   boost,91.2,86291,1334.16,12.6,     NaN,33.7,4,3.99,3.99,0,0,0,64.21,64.39,0,0,0,0,    NaN,4.01,0,0,0,0,1,1,9,32.9395167,-106.9122671,1390,2024,6,21,22,56,50,0,0,302,0,1.7,0.9,1.4,0,0,0,0,0,0,0,29,0,37,0,0,0,0,10,0,0,0,0,0,28,0,35,33,0,0,20,29,0,0,0,41
6,6583,4,,0.39,3,   boost,94.14,86303,1333.02,11.46,     NaN,33.7,4,3.99,3.99,0,0,0,64.21,64.39,0,0,0,0,    NaN,4.01,0,0,0,0,1,1,9,32.9395167,-106.9122671,1390,2024,6,21,22,56,50,0,0,302,0,1.7,0.9,1.4,0,0,0,0,0,0,0,29,0,37,0,0,0,0,10,0,0,0,0,0,28,0,35,33,0,0,20,29,0,0,0,41
6,6583,4,,0.4,3,   boost,91.69,86284,1334.82,13.26,     NaN,33.7,4,3.99,3.99,0,0,0,64.21,64.39,0,0,0,0,    NaN,4.01,0,0,0,0,1,1,9,32.9395167,-106.9122671,1390,2024,6,21,22,56,50,0,0,302,0,1.7,0.9,1.4,0,0,0,0,0,0,0,29,0,37,0,0,0,0,10,0,0,0,0,0,28,0,35,33,0,0,20,29,0,0,0,41
6,6583,4,,0.41,3,   boost,89.24,86278,1335.39,13.83,     NaN,33.7,4,3.99,3.99,0,0,0,64.21,64.39,0,0,0,0,    NaN,4.01,0,0,0,0,1,1,9,32.9395167,-106.9122671,1390,2024,6,21,22,56,50,0,0,302,0,1.7,0.9,1.4,0,0,0,0,0,0,0,29,0,37,0,0,0,0,10,0,0,0,0,0,28,0,35,33,0,0,20,29,0,0,0,41
6,6583,4,,0.42,3,   boost,93.16,86279,1335.3,13.74,     NaN,33.7,4,3.99,3.99,0,0,0,64.21,64.39,0,0,0,0,    NaN,4.01,0,0,0,0,1,1,9,32.9395167,-106.9122671,1390,2024,6,21,22,56,50,0,0,302,0,1.7,0.9,1.4,0,0,0,0,0,0,0,29,0,37,0,0,0,0,10,0,0,0,0,0,28,0,35,33,0,0,20,29,0,0,0,41
6,6583,4,,0.43,3,   boost,95.12,86273,1335.87,14.31,     NaN,33.7,4,3.99,3.99,0,0,0,64.21,64.39,0,0,0,0,    NaN,4.01,0,0,0,0,1,1,9,32.9395167,-106.9122671,1390,2024,6,21,22,56,50,0,0,302,0,1.7,0.9,1.4,0,0,0,0,0,0,0,29,0,37,0,0,0,0,10,0,0,0,0,0,28,0,35,33,0,0,20,29,0,0,0,41
6,6583,4,,0.44,3,   boost,91.2,86265,1336.63,15.07,     NaN,33.7,4,3.99,3.99,0,0,0,64.21,64.39,0,0,0,0,    NaN,4.01,0,0,0,0,1,1,9,32.9395167,-106.9122671,1390,2024,6,21,22,56,50,0,0,302,0,1.7,0.9,1.4,0,0,0,0,0,0,0,29,0,37,0,0,0,0,10,0,0,0,0,0,28,0,35,33,0,0,20,29,0,0,0,41
6,6583,4,,0.45,3,   boost,94.14,86258,1337.29,15.73,     NaN,33.7,4,3.99,3.99,0,0,0,64.21,64.39,0,0,0,0,    NaN,4.01,0,0,0,0,1,1,9,32.9395167,-106.9122671,1390,2024,6,21,22,56,50,0,0,302,0,1.7,0.9,1.4,0,0,0,0,0,0,0,29,0,37,0,0,0,0,10,0,0,0,0,0,28,0,35,33,0,0,20,29,0,0,0,41
6,6583,4,,0.46,3,   boost,93.65,86270,1336.15,14.59,     NaN,33.7,4,3.99,3.99,0,0,0,64.21,64.39,0,0,0,0,    NaN,4.01,0,0,0,0,1,1,9,32.9395167,-106.9122671,1390,2024,6,21,22,56,50,0,0,302,0,1.7,0.9,1.4,0,0,0,0,0,0,0,29,0,37,0,0,0,0,10,0,0,0,0,0,28,0,35,33,0,0,20,29,0,0,0,41
6,6583,4,,0.47,3,   boost,95.61,86255,1337.57,16.01,     NaN,33.6,4,3.99,3.99,0,0,0,64.21,64.39,0,0,0,0,    NaN,4.01,0,0,0,0,1,1,9,32.9395167,-106.9122671,1390,2024,6,21,22,56,50,0,0,302,0,1.7,0.9,1.4,0,0,0,0,0,0,0,29,0,37,0,0,0,0,10,0,0,0,0,0,28,0,35,33,0,0,20,29,0,0,0,41
6,6583,4,,0.48,3,   boost,95.61,86259,1337.2,15.64,     NaN,33.7,4,3.99,3.99,0,0,0,64.21,64.39,0,0,0,0,    NaN,4.01,0,0,0,0,1,1,9,32.9395167,-106.9122671,1390,2024,6,21,22,56,50,0,0,302,0,1.7,0.9,1.4,0,0,0,0,0,0,0,29,0,37,0,0,0,0,10,0,0,0,0,0,28,0,35,33,0,0,20,29,0,0,0,41
6,6583,4,,0.49,3,   boost,94.14,86243,1338.71,17.15,     NaN,33.7,4,3.99,3.99,0,0,0,64.21,64.39,0,0,0,0,    NaN,4.01,0,0,0,0,1,1,9,32.9395167,-106.9122671,1390,2024,6,21,22,56,50,0,0,302,0,1.7,0.9,1.4,0,0,0,0,0,0,0,29,0,37,0,0,0,0,10,0,0,0,0,0,28,0,35,33,0,0,20,29,0,0,0,41
6,6583,4,,0.5,3,   boost,92.18,86245,1338.52,16.96,     NaN,33.7,4,3.99,3.99,0,0,0,64.21,64.39,0,0,0,0,    NaN,4.01,0,0,0,0,1,1,9,32.9395167,-106.9122671,1390,2024,6,21,22,56,50,0,0,302,0,1.7,0.9,1.4,0,0,0,0,0,0,0,29,0,37,0,0,0,0,10,0,0,0,0,0,28,0,35,33,0,0,20,29,0,0,0,41
6,6583,4,,0.51,3,   boost,94.14,86231,1339.85,18.29,     NaN,33.7,4,3.99,3.99,0,0,0,64.21,64.39,0,0,0,0,    NaN,4.01,0,0,0,0,1,1,9,32.9395167,-106.9122671,1390,2024,6,21,22,56,50,0,0,302,0,1.7,0.9,1.4,0,0,0,0,0,0,0,29,0,37,0,0,0,0,10,0,0,0,0,0,28,0,35,33,0,0,20,29,0,0,0,41
6,6583,4,,0.52,3,   boost,93.16,86236,1339.38,17.82,     NaN,33.7,4,3.99,3.99,0,0,0,64.21,64.39,0,0,0,0,    NaN,4.01,0,0,0,0,1,1,9,32.9395167,-106.9122671,1390,2024,6,21,22,56,50,0,0,302,0,1.7,0.9,1.4,0,0,0,0,0,0,0,29,0,37,0,0,0,0,10,0,0,0,0,0,28,0,35,33,0,0,20,29,0,0,0,41
6,6583,4,,0.53,3,   boost,94.63,86233,1339.66,18.1,     NaN,33.7,4,3.99,3.99,0,0,0,64.21,64.39,0,0,0,0,    NaN,4.01,0,0,0,0,1,1,9,32.9395167,-106.9122671,1390,2024,6,21,22,56,50,0,0,302,0,1.7,0.9,1.4,0,0,0,0,0,0,0,29,0,37,0,0,0,0,10,0,0,0,0,0,28,0,35,33,0,0,20,29,0,0,0,41
6,6583,4,,0.54,3,   boost,91.69,86224,1340.51,18.95,     NaN,33.7,4,3.99,3.99,0,0,0,64.21,64.39,0,0,0,0,    NaN,4.01,0,0,0,0,1,1,9,32.9395167,-106.9122671,1390,2024,6,21,22,56,50,0,0,302,0,1.7,0.9,1.4,0,0,0,0,0,0,0,29,0,37,0,0,0,0,10,0,0,0,0,0,28,0,35,33,0,0,20,29,0,0,0,41
6,6583,4,,0.55,3,   boost,95.12,86214,1341.46,19.9,     NaN,33.7,4,3.99,3.99,0,0,0,64.21,64.39,0,0,0,0,    NaN,4.01,0,0,0,0,1,1,9,32.9395167,-106.9122671,1390,2024,6,21,22,56,50,0,0,302,0,1.7,0.9,1.4,0,0,0,0,0,0,0,29,0,37,0,0,0,0,10,0,0,0,0,0,28,0,35,33,0,0,20,29,0,0,0,41
6,6583,4,,0.56,3,   boost,95.61,86202,1342.6,21.04,     NaN,33.7,4,3.99,3.99,0,0,0,64.21,64.39,0,0,0,0,    NaN,4.01,0,0,0,0,1,1,9,32.9395167,-106.9122671,1390,2024,6,21,22,56,50,0,0,302,0,1.7,0.9,1.4,0,0,0,0,0,0,0,29,0,37,0,0,0,0,10,0,0,0,0,0,28,0,35,33,0,0,20,29,0,0,0,41
6,6583,4,,0.57,3,   boost,92.67,86204,1342.41,20.85,     NaN,33.7,4,3.99,3.99,0,0,0,64.21,64.39,0,0,0,0,    NaN,4.01,0,0,0,0,1,1,9,32.9395167,-106.9122671,1390,2024,6,21,22,56,50,0,0,302,0,1.7,0.9,1.4,0,0,0,0,0,0,0,29,0,37,0,0,0,0,10,0,0,0,0,0,28,0,35,33,0,0,20,29,0,0,0,41
6,6583,4,,0.58,3,   boost,95.12,86180,1344.69,23.13,     NaN,33.6,4,3.99,3.99,0,0,0,64.21,64.39,0,0,0,0,    NaN,4.01,0,0,0,0,1,1,9,32.9395167,-106.9122671,1390,2024,6,21,22,56,50,0,0,302,0,1.7,0.9,1.4,0,0,0,0,0,0,0,29,0,37,0,0,0,0,10,0,0,0,0,0,28,0,35,33,0,0,20,29,0,0,0,41
6,6583,4,,0.59,3,   boost,94.63,86199,1342.89,21.33,     NaN,33.7,4,3.99,3.99,0,0,0,64.21,64.39,0,0,0,0,    NaN,4.01,0,0,0,0,1,1,9,32.9395167,-106.9122671,1390,2024,6,21,22,56,50,0,0,302,0,1.7,0.9,1.4,0,0,0,0,0,0,0,29,0,37,0,0,0,0,10,0,0,0,0,0,28,0,35,33,0,0,20,29,0,0,0,41
6,6583,4,,0.6,3,   boost,93.16,86189,1343.84,22.28,     NaN,33.7,4,3.99,3.99,0,0,0,64.21,64.39,0,0,0,0,    NaN,4.01,0,0,0,0,1,1,9,32.9395167,-106.9122671,1390,2024,6,21,22,56,50,0,0,302,0,1.7,0.9,1.4,0,0,0,0,0,0,0,29,0,37,0,0,0,0,10,0,0,0,0,0,28,0,35,33,0,0,20,29,0,0,0,41
6,6583,4,,0.61,3,   boost,92.67,86188,1343.93,22.37,     NaN,33.7,4,3.99,3.99,0,0,0,64.21,64.39,0,0,0,0,    NaN,4.01,0,0,0,0,1,1,9,32.9395167,-106.9122671,1390,2024,6,21,22,56,50,0,0,302,0,1.7,0.9,1.4,0,0,0,0,0,0,0,29,0,37,0,0,0,0,10,0,0,0,0,0,28,0,35,33,0,0,20,29,0,0,0,41
6,6583,4,,0.62,3,   boost,95.12,86173,1345.35,23.79,     NaN,33.7,4,3.99,3.99,0,0,0,64.21,64.39,0,0,0,0,    NaN,4.01,0,0,0,0,1,1,9,32.9395167,-106.9122671,1390,2024,6,21,22,56,50,0,0,302,0,1.7,0.9,1.4,0,0,0,0,0,0,0,29,0,37,0,0,0,0,10,0,0,0,0,0,28,0,35,33,0,0,20,29,0,0,0,41
6,6583,4,,0.63,3,   boost,94.14,86167,1345.92,24.36,     NaN,33.6,4,3.99,3.99,0,0,0,64.21,64.39,0,0,0,0,    NaN,4.01,0,0,0,0,1,1,9,32.9395167,-106.9122671,1390,2024,6,21,22,56,50,0,0,302,0,1.7,0.9,1.4,0,0,0,0,0,0,0,29,0,37,0,0,0,0,10,0,0,0,0,0,28,0,35,33,0,0,20,29,0,0,0,41
6,6583,4,,0.64,3,   boost,98.07,86174,1345.26,23.7,     NaN,33.7,4,3.99,3.99,0,0,0,64.21,64.39,0,0,0,0,    NaN,4.01,0,0,0,0,1,1,9,32.9395167,-106.9122671,1390,2024,6,21,22,56,50,0,0,302,0,1.7,0.9,1.4,0,0,0,0,0,0,0,29,0,37,0,0,0,0,10,0,0,0,0,0,28,0,35,33,0,0,20,29,0,0,0,41
6,6583,4,,0.65,3,   boost,95.61,86164,1346.21,24.65,     NaN,33.7,4,3.99,3.99,0,0,0,64.21,64.39,0,0,0,0,    NaN,4.01,0,0,0,0,1,1,9,32.9395167,-106.9122671,1390,2024,6,21,22,56,50,0,0,302,0,1.7,0.9,1.4,0,0,0,0,0,0,0,29,0,37,0,0,0,0,10,0,0,0,0,0,28,0,35,33,0,0,20,29,0,0,0,41
6,6583,4,,0.66,3,   boost,96.11,86153,1347.25,25.69,     NaN,33.6,4,3.98,4,0,0,0,64.21,64.39,0,0,0,0,    NaN,4,0,0,0.03,0,1,1,9,32.9395167,-106.9122671,1390,2024,6,21,22,56,50,0,0,302,0,1.7,0.9,1.4,0,0,0,0,0,0,0,29,0,37,0,0,0,0,10,0,0,0,0,0,28,0,35,33,0,0,20,29,0,0,0,41
6,6583,4,,0.66,3,   boost,96.11,86153,1347.25,25.69,     NaN,33.6,4,3.98,4,0,0,0,64.21,64.39,0,0,0,0,    NaN,4,0,0,0.03,0,1,1,9,32.9395167,-106.9122671,1390,2024,6,21,22,56,50,0,0,302,0,1.7,0.9,1.4,0,0,0,0,0,0,0,29,0,37,0,0,0,0,10,0,0,0,0,0,28,0,35,33,0,0,20,29,0,0,0,41
6,6583,4,,0.67,3,   boost,92.18,86158,1346.78,25.22,     NaN,33.7,4,3.98,4,0.03,0,0,64.15,64.39,0,0,0,0,    NaN,4,0,0,0.03,0,1,1,9,32.9395167,-106.9122671,1390,2024,6,21,22,56,50,0,0,302,0,1.7,0.9,1.4,0,0,0,0,0,0,0,29,0,37,0,0,0,0,10,0,0,0,0,0,28,0,35,33,0,0,20,29,0,0,0,41
6,6583,4,,0.68,3,   boost,94.63,86141,1348.39,26.83,     NaN,33.7,4,3.98,4,0.03,0,0,64.15,64.39,0,0,0,0,    NaN,4,0,0,0.03,0,1,1,9,32.9395167,-106.9122671,1390,2024,6,21,22,56,50,0,0,302,0,1.7,0.9,1.4,0,0,0,0,0,0,0,29,0,37,0,0,0,0,10,0,0,0,0,0,28,0,35,33,0,0,20,29,0,0,0,41
6,6583,4,,0.69,3,   boost,97.09,86128,1349.63,28.07,     NaN,33.7,4,3.98,4,0.03,0,0,64.15,64.39,0,0,0,0,    NaN,4,0,0,0.03,0,1,1,9,32.9395167,-106.9122671,1390,2024,6,21,22,56,50,0,0,302,0,1.7,0.9,1.4,0,0,0,0,0,0,0,29,0,37,0,0,0,0,10,0,0,0,0,0,28,0,35,33,0,0,20,29,0,0,0,41
6,6583,4,,0.7,3,   boost,97.58,86130,1349.44,27.88,     NaN,33.7,4,3.98,4,0.03,0,0,64.15,64.39,0,0,0,0,    NaN,4,0,0,0.03,0,1,1,9,32.9395167,-106.9122671,1390,2024,6,21,22,56,50,0,0,302,0,1.7,0.9,1.4,0,0,0,0,0,0,0,29,0,37,0,0,0,0,10,0,0,0,0,0,28,0,35,33,0,0,20,29,0,0,0,41
6,6583,4,,0.71,3,   boost,96.6,86119,1350.48,28.92,     NaN,33.7,4,3.98,4,0.03,0,0,64.15,64.39,0,0,0,0,    NaN,4,0,0,0.03,0,1,1,9,32.9395167,-106.9122671,1390,2024,6,21,22,56,50,0,0,302,0,1.7,0.9,1.4,0,0,0,0,0,0,0,29,0,37,0,0,0,0,10,0,0,0,0,0,28,0,35,33,0,0,20,29,0,0,0,41
6,6583,4,,0.72,3,   boost,96.11,86119,1350.48,28.92,     NaN,33.7,4,3.98,4,0.03,0,0,64.15,64.39,0,0,0,0,    NaN,4,0,0,0.03,0,1,1,9,32.9395167,-106.9122671,1390,2024,6,21,22,56,50,0,0,302,0,1.7,0.9,1.4,0,0,0,0,0,0,0,29,0,37,0,0,0,0,10,0,0,0,0,0,28,0,35,33,0,0,20,29,0,0,0,41
6,6583,4,,0.73,3,   boost,98.07,86110,1351.33,29.77,     NaN,33.7,4,3.98,4,0.03,0,0,64.15,64.39,0,0,0,0,    NaN,4,0,0,0.03,0,1,1,9,32.9395167,-106.9122671,1390,2024,6,21,22,56,50,0,0,302,0,1.7,0.9,1.4,0,0,0,0,0,0,0,29,0,37,0,0,0,0,10,0,0,0,0,0,28,0,35,33,0,0,20,29,0,0,0,41
6,6583,4,,0.74,3,   boost,95.61,86102,1352.09,30.53,     NaN,33.7,4,3.98,4,0.03,0,0,64.15,64.39,0,0,0,0,    NaN,4,0,0,0.03,0,1,1,9,32.9395167,-106.9122671,1390,2024,6,21,22,56,50,0,0,302,0,1.7,0.9,1.4,0,0,0,0,0,0,0,29,0,37,0,0,0,0,10,0,0,0,0,0,28,0,35,33,0,0,20,29,0,0,0,41
6,6583,4,,0.75,3,   boost,95.61,86092,1353.04,31.48,     NaN,33.7,4,3.98,4,0.03,0,0,64.15,64.39,0,0,0,0,    NaN,4,0,0,0.03,0,1,1,9,32.9395167,-106.9122671,1390,2024,6,21,22,56,50,0,0,302,0,1.7,0.9,1.4,0,0,0,0,0,0,0,29,0,37,0,0,0,0,10,0,0,0,0,0,28,0,35,33,0,0,20,29,0,0,0,41
6,6583,4,,0.76,3,   boost,95.61,86086,1353.61,32.05,     NaN,33.7,4,3.98,4,0.03,0,0,64.15,64.39,0,0,0,0,    NaN,4,0,0,0.03,0,1,1,9,32.9395167,-106.9122671,1390,2024,6,21,22,56,50,0,0,302,0,1.7,0.9,1.4,0,0,0,0,0,0,0,29,0,37,0,0,0,0,10,0,0,0,0,0,28,0,35,33,0,0,20,29,0,0,0,41
6,6583,4,,0.77,3,   boost,96.6,86081,1354.09,32.53,     NaN,33.7,4,3.98,4,0.03,0,0,64.15,64.39,0,0,0,0,    NaN,4,0,0,0.03,0,1,1,9,32.9395167,-106.9122671,1390,2024,6,21,22,56,50,0,0,302,0,1.7,0.9,1.4,0,0,0,0,0,0,0,29,0,37,0,0,0,0,10,0,0,0,0,0,28,0,35,33,0,0,20,29,0,0,0,41
6,6583,4,,0.78,3,   boost,100.03,86063,1355.8,34.24,     NaN,33.7,4,3.98,4,0.03,0,0,64.15,64.39,0,0,0,0,    NaN,4,0,0,0.03,0,1,1,9,32.9395167,-106.9122671,1390,2024,6,21,22,56,50,0,0,302,0,1.7,0.9,1.4,0,0,0,0,0,0,0,29,0,37,0,0,0,0,10,0,0,0,0,0,28,0,35,33,0,0,20,29,0,0,0,41
6,6583,4,,0.79,3,   boost,94.14,86050,1357.03,35.47,     NaN,33.7,4,3.98,4,0.03,0,0,64.15,64.39,0,0,0,0,    NaN,4,0,0,0.03,0,1,1,9,32.9395167,-106.9122671,1390,2024,6,21,22,56,50,0,0,302,0,1.7,0.9,1.4,0,0,0,0,0,0,0,29,0,37,0,0,0,0,10,0,0,0,0,0,28,0,35,33,0,0,20,29,0,0,0,41
6,6583,4,,0.8,3,   boost,98.56,86064,1355.7,34.14,     NaN,33.7,4,3.98,4,0.03,0,0,64.15,64.39,0,0,0,0,    NaN,4,0,0,0.03,0,1,1,9,32.9395167,-106.9122671,1390,2024,6,21,22,56,50,0,0,302,0,1.7,0.9,1.4,0,0,0,0,0,0,0,29,0,37,0,0,0,0,10,0,0,0,0,0,28,0,35,33,0,0,20,29,0,0,0,41
6,6583,4,,0.81,3,   boost,97.09,86053,1356.75,35.19,     NaN,33.7,4,3.98,4,0.03,0,0,64.15,64.39,0,0,0,0,    NaN,4,0,0,0.03,0,1,1,9,32.9395167,-106.9122671,1390,2024,6,21,22,56,50,0,0,302,0,1.7,0.9,1.4,0,0,0,0,0,0,0,29,0,37,0,0,0,0,10,0,0,0,0,0,28,0,35,33,0,0,20,29,0,0,0,41
6,6583,4,,0.82,3,   boost,96.11,86039,1358.08,36.52,     NaN,33.7,4,3.98,4,0.03,0,0,64.15,64.39,0,0,0,0,    NaN,4,0,0,0.03,0,1,1,9,32.9395167,-106.9122671,1390,2024,6,21,22,56,50,0,0,302,0,1.7,0.9,1.4,0,0,0,0,0,0,0,29,0,37,0,0,0,0,10,0,0,0,0,0,28,0,35,33,0,0,20,29,0,0,0,41
6,6583,4,,0.83,3,   boost,100.52,86032,1358.74,37.18,     NaN,33.7,4,3.98,4,0.03,0,0,64.15,64.39,0,0,0,0,    NaN,4,0,0,0.03,0,1,1,9,32.9395167,-106.9122671,1390,2024,6,21,22,56,50,0,0,302,0,1.7,0.9,1.4,0,0,0,0,0,0,0,29,0,37,0,0,0,0,10,0,0,0,0,0,28,0,35,33,0,0,20,29,0,0,0,41
6,6583,4,,0.84,3,   boost,100.52,86025,1359.41,37.85,     NaN,33.7,4,3.98,4,0.03,0,0,64.15,64.39,0,0,0,0,    NaN,4,0,0,0.03,0,1,1,9,32.9395167,-106.9122671,1390,2024,6,21,22,56,50,0,0,302,0,1.7,0.9,1.4,0,0,0,0,0,0,0,29,0,37,0,0,0,0,10,0,0,0,0,0,28,0,35,33,0,0,20,29,0,0,0,41
6,6583,4,,0.85,3,   boost,99.54,86008,1361.03,39.47,     NaN,33.7,4,3.98,4,0.03,0,0,64.15,64.39,0,0,0,0,    NaN,4,0,0,0.03,0,1,1,9,32.9395167,-106.9122671,1390,2024,6,21,22,56,50,0,0,302,0,1.7,0.9,1.4,0,0,0,0,0,0,0,29,0,37,0,0,0,0,10,0,0,0,0,0,28,0,35,33,0,0,20,29,0,0,0,41
6,6583,4,,0.86,3,   boost,99.54,86015,1360.36,38.8,     NaN,33.7,4,3.98,4,0.03,0,0,64.15,64.39,0,0,0,0,    NaN,4,0,0,0.03,0,1,1,9,32.9395167,-106.9122671,1390,2024,6,21,22,56,50,0,0,302,0,1.7,0.9,1.4,0,0,0,0,0,0,0,29,0,37,0,0,0,0,10,0,0,0,0,0,28,0,35,33,0,0,20,29,0,0,0,41
6,6583,4,,0.87,3,   boost,98.07,86008,1361.03,39.47,     NaN,33.6,4,3.98,4,0.03,0,0,64.15,64.39,0,0,0,0,    NaN,4,0,0,0.03,0,1,1,9,32.9395167,-106.9122671,1390,2024,6,21,22,56,50,0,0,302,0,1.7,0.9,1.4,0,0,0,0,0,0,0,29,0,37,0,0,0,0,10,0,0,0,0,0,28,0,35,33,0,0,20,29,0,0,0,41
6,6583,4,,0.88,3,   boost,100.52,85993,1362.45,40.89,     NaN,33.7,4,3.98,4,0.03,0,0,64.15,64.39,0,0,0,0,    NaN,4,0,0,0.03,0,1,1,9,32.9395167,-106.9122671,1390,2024,6,21,22,56,50,0,0,302,0,1.7,0.9,1.4,0,0,0,0,0,0,0,29,0,37,0,0,0,0,10,0,0,0,0,0,28,0,35,33,0,0,20,29,0,0,0,41
6,6583,4,,0.89,3,   boost,101.01,85992,1362.55,40.99,     NaN,33.7,4,3.98,4,0.03,0,0,64.15,64.39,0,0,0,0,    NaN,4,0,0,0.03,0,1,1,9,32.9395167,-106.9122671,1390,2024,6,21,22,56,50,0,0,302,0,1.7,0.9,1.4,0,0,0,0,0,0,0,29,0,37,0,0,0,0,10,0,0,0,0,0,28,0,35,33,0,0,20,29,0,0,0,41
6,6583,4,,0.9,3,   boost,99.05,85980,1363.69,42.13,     NaN,33.7,4,3.98,4,0.03,0,0,64.15,64.39,0,0,0,0,    NaN,4,0,0,0.03,0,1,1,9,32.9395167,-106.9122671,1390,2024,6,21,22,56,50,0,0,302,0,1.7,0.9,1.4,0,0,0,0,0,0,0,29,0,37,0,0,0,0,10,0,0,0,0,0,28,0,35,33,0,0,20,29,0,0,0,41
6,6583,4,,0.91,3,   boost,102.97,85967,1364.92,43.36,     NaN,33.7,4,3.98,4,0.03,0,0,64.15,64.39,0,0,0,0,    NaN,4,0,0,0.03,0,1,1,9,32.9395167,-106.9122671,1390,2024,6,21,22,56,50,0,0,302,0,1.7,0.9,1.4,0,0,0,0,0,0,0,29,0,37,0,0,0,0,10,0,0,0,0,0,28,0,35,33,0,0,20,29,0,0,0,41
6,6583,4,,0.92,3,   boost,100.52,85954,1366.16,44.6,     NaN,33.7,4,3.98,4,0.03,0,0,64.15,64.39,0,0,0,0,    NaN,4,0,0,0.03,0,1,1,9,32.9395167,-106.9122671,1390,2024,6,21,22,56,50,0,0,302,0,1.7,0.9,1.4,0,0,0,0,0,0,0,29,0,37,0,0,0,0,10,0,0,0,0,0,28,0,35,33,0,0,20,29,0,0,0,41
6,6583,4,,0.93,3,   boost,101.99,85940,1367.49,45.93,     NaN,33.6,4,3.98,4,0.03,0,0,64.15,64.39,0,0,0,0,    NaN,4,0,0,0.03,0,1,1,9,32.9395167,-106.9122671,1390,2024,6,21,22,56,50,0,0,302,0,1.7,0.9,1.4,0,0,0,0,0,0,0,29,0,37,0,0,0,0,10,0,0,0,0,0,28,0,35,33,0,0,20,29,0,0,0,41
6,6583,4,,0.94,3,   boost,102.48,85931,1368.35,46.79,     NaN,33.7,4,3.98,4,0.03,0,0,64.15,64.39,0,0,0,0,    NaN,4,0,0,0.03,0,1,1,9,32.9395167,-106.9122671,1390,2024,6,21,22,56,50,0,0,302,0,1.7,0.9,1.4,0,0,0,0,0,0,0,29,0,37,0,0,0,0,10,0,0,0,0,0,28,0,35,33,0,0,20,29,0,0,0,41
6,6583,4,,0.95,3,   boost,99.05,85934,1368.06,46.5,     NaN,33.7,4,3.98,4,0.03,0,0,64.15,64.39,0,0,0,0,    NaN,4,0,0,0.03,0,1,1,9,32.9395167,-106.9122671,1390,2024,6,21,22,56,50,0,0,302,0,1.7,0.9,1.4,0,0,0,0,0,0,0,29,0,37,0,0,0,0,10,0,0,0,0,0,28,0,35,33,0,0,20,29,0,0,0,41
6,6583,4,,0.96,3,   boost,101.01,85929,1368.54,46.98,     NaN,33.7,4,3.98,4,0.03,0,0,64.15,64.39,0,0,0,0,    NaN,4,0,0,0.03,0,1,1,9,32.9395167,-106.9122671,1390,2024,6,21,22,56,50,0,0,302,0,1.7,0.9,1.4,0,0,0,0,0,0,0,29,0,37,0,0,0,0,10,0,0,0,0,0,28,0,35,33,0,0,20,29,0,0,0,41
6,6583,4,,0.97,3,   boost,100.03,85915,1369.87,48.31,     NaN,33.7,4,3.98,4,0.03,0,0,64.15,64.39,0,0,0,0,    NaN,4,0,0,0.03,0,1,1,9,32.9395167,-106.9122671,1390,2024,6,21,22,56,50,0,0,302,0,1.7,0.9,1.4,0,0,0,0,0,0,0,29,0,37,0,0,0,0,10,0,0,0,0,0,28,0,35,33,0,0,20,29,0,0,0,41
6,6583,4,,0.98,3,   boost,104.44,85883,1372.91,51.35,     NaN,33.7,4,3.99,3.99,0.03,0,0,64.15,64.39,0,0,0,0,    NaN,4.01,0,0,0.02,0,1,1,9,32.9395167,-106.9122671,1390,2024,6,21,22,56,50,0,0,302,0,1.7,0.9,1.4,0,0,0,0,0,0,0,29,0,37,0,0,0,0,10,0,0,0,0,0,28,0,35,33,0,0,20,29,0,0,0,41
6,6583,4,,0.98,3,   boost,104.44,85883,1372.91,51.35,     NaN,33.7,4,3.99,3.99,0.03,0,0,64.15,64.39,0,0,0,0,    NaN,4.01,0,0,0.02,0,1,1,9,32.9395167,-106.9122671,1390,2024,6,21,22,56,50,0,0,302,0,1.7,0.9,1.4,0,0,0,0,0,0,0,29,0,37,0,0,0,0,10,0,0,0,0,0,28,0,35,33,0,0,20,29,0,0,0,41
6,6583,4,,0.99,3,   boost,103.46,85888,1372.44,50.88,     NaN,33.7,4,3.99,3.99,0.03,0,0,64.27,64.39,0,0,0,0,    NaN,4.01,0,0,0.02,0,1,1,9,32.9395167,-106.9122671,1390,2024,6,21,22,56,50,0,0,302,0,1.7,0.9,1.4,0,0,0,0,0,0,0,29,0,37,0,0,0,0,10,0,0,0,0,0,28,0,35,33,0,0,20,29,0,0,0,41
6,6583,4,,1,3,   boost,103.46,85875,1373.68,52.12,     NaN,33.7,4,3.99,3.99,0.03,0,0,64.27,64.39,0,0,0,0,    NaN,4.01,0,0,0.02,0,1,1,9,32.9395167,-106.9122671,1390,2024,6,21,22,56,50,0,0,302,0,1.7,0.9,1.4,0,0,0,0,0,0,0,29,0,37,0,0,0,0,10,0,0,0,0,0,28,0,35,33,0,0,20,29,0,0,0,41
6,6583,4,,1.01,3,   boost,103.46,85865,1374.63,53.07,     NaN,33.6,4,3.99,3.99,0.03,0,0,64.27,64.39,0,0,0,0,    NaN,4.01,0,0,0.02,0,1,1,9,32.9395167,-106.9122671,1390,2024,6,21,22,56,50,0,0,302,0,1.7,0.9,1.4,0,0,0,0,0,0,0,29,0,37,0,0,0,0,10,0,0,0,0,0,28,0,35,33,0,0,20,29,0,0,0,41
6,6583,4,,1.02,3,   boost,102.48,85850,1376.06,54.5,     NaN,33.7,4,3.99,3.99,0.03,0,0,64.27,64.39,0,0,0,0,    NaN,4.01,0,0,0.02,0,1,1,9,32.9395167,-106.9122671,1390,2024,6,21,22,56,50,0,0,302,0,1.7,0.9,1.4,0,0,0,0,0,0,0,29,0,37,0,0,0,0,10,0,0,0,0,0,28,0,35,33,0,0,20,29,0,0,0,41
6,6583,4,,1.03,3,   boost,105.42,85851,1375.96,54.4,     NaN,33.7,4,3.99,3.99,0.03,0,0,64.27,64.39,0,0,0,0,    NaN,4.01,0,0,0.02,0,1,1,9,32.9395167,-106.9122671,1390,2024,6,21,22,56,50,0,0,302,0,1.7,0.9,1.4,0,0,0,0,0,0,0,29,0,37,0,0,0,0,10,0,0,0,0,0,28,0,35,33,0,0,20,29,0,0,0,41
6,6583,4,,1.04,3,   boost,104.44,85837,1377.29,55.73,     NaN,33.7,4,3.99,3.99,0.03,0,0,64.27,64.39,0,0,0,0,    NaN,4.01,0,0,0.02,0,1,1,9,32.9395167,-106.9122671,1390,2024,6,21,22,56,50,0,0,302,0,1.7,0.9,1.4,0,0,0,0,0,0,0,29,0,37,0,0,0,0,10,0,0,0,0,0,28,0,35,33,0,0,20,29,0,0,0,41
6,6583,4,,1.05,3,   boost,100.52,85826,1378.34,56.78,     NaN,33.7,4,3.99,3.99,0.03,0,0,64.27,64.39,0,0,0,0,    NaN,4.01,0,0,0.02,0,1,1,9,32.9395167,-106.9122671,1390,2024,6,21,22,56,50,0,0,302,0,1.7,0.9,1.4,0,0,0,0,0,0,0,29,0,37,0,0,0,0,10,0,0,0,0,0,28,0,35,33,0,0,20,29,0,0,0,41
6,6583,4,,1.06,3,   boost,105.42,85822,1378.72,57.16,     NaN,33.7,4,3.99,3.99,0.03,0,0,64.27,64.39,0,0,0,0,    NaN,4.01,0,0,0.02,0,1,1,9,32.9394322,-106.9124595,1394,2024,6,21,22,56,51,20,21,243,11,1.7,0.9,1.4,0,0,0,0,0,0,0,29,0,22,0,0,0,0,9,0,0,0,0,0,27,0,23,26,0,0,21,29,0,0,0,24
6,6583,4,,1.06,3,   boost,105.42,85822,1378.72,57.16,     NaN,33.7,4,3.99,3.99,0.03,0,0,64.27,64.39,0,0,0,0,    NaN,4.01,0,0,0.02,0,1,1,9,32.9394322,-106.9124595,1394,2024,6,21,22,56,51,20,21,243,11,1.7,0.9,1.4,0,0,0,0,0,0,0,29,0,22,0,0,0,0,9,0,0,0,0,0,27,0,23,26,0,0,21,29,0,0,0,24
6,6583,4,,1.06,3,   boost,105.42,85822,1378.72,57.16,     NaN,33.7,4,3.99,3.99,0.03,0,0,64.27,64.39,0,0,0,0,    NaN,4.01,0,0,0.02,0,1,1,9,32.9394322,-106.9124595,1394,2024,6,21,22,56,51,20,21,243,11,1.7,0.9,1.4,0,0,0,0,0,0,0,29,0,22,0,0,0,0,9,0,0,0,0,0,27,0,23,26,0,0,21,29,0,0,0,24
6,6583,4,,1.07,3,   boost,100.03,85807,1380.15,58.59,     NaN,33.7,4,3.99,3.99,0.03,0,0,64.27,64.39,0,0,0,0,    NaN,4.01,0,0,0.02,0,1,1,9,32.9394322,-106.9124595,1394,2024,6,21,22,56,51,20,21,243,11,1.7,0.9,1.4,0,0,0,0,0,0,0,29,0,22,0,0,0,0,9,0,0,0,0,0,27,0,23,26,0,0,21,29,0,0,0,24
6,6583,4,,1.08,3,   boost,100.03,85798,1381.01,59.45,     NaN,33.7,4,3.99,3.99,0.03,0,0,64.27,64.39,0,0,0,0,    NaN,4.01,0,0,0.02,0,1,1,9,32.9394322,-106.9124595,1394,2024,6,21,22,56,51,20,21,243,11,1.7,0.9,1.4,0,0,0,0,0,0,0,29,0,22,0,0,0,0,9,0,0,0,0,0,27,0,23,26,0,0,21,29,0,0,0,24
6,6583,4,,1.09,3,   boost,103.46,85781,1382.63,61.07,     NaN,33.7,4,3.99,3.99,0.03,0,0,64.27,64.39,0,0,0,0,    NaN,4.01,0,0,0.02,0,1,1,9,32.9394322,-106.9124595,1394,2024,6,21,22,56,51,20,21,243,11,1.7,0.9,1.4,0,0,0,0,0,0,0,29,0,22,0,0,0,0,9,0,0,0,0,0,27,0,23,26,0,0,21,29,0,0,0,24
6,6583,4,,1.1,3,   boost,102.97,85774,1383.29,61.73,     NaN,33.7,4,3.99,3.99,0.03,0,0,64.27,64.39,0,0,0,0,    NaN,4.01,0,0,0.02,0,1,1,9,32.9394322,-106.9124595,1394,2024,6,21,22,56,51,20,21,243,11,1.7,0.9,1.4,0,0,0,0,0,0,0,29,0,22,0,0,0,0,9,0,0,0,0,0,27,0,23,26,0,0,21,29,0,0,0,24
6,6583,4,,1.11,3,   boost,105.42,85754,1385.2,63.64,     NaN,33.7,4,3.99,3.99,0.03,0,0,64.27,64.39,0,0,0,0,    NaN,4.01,0,0,0.02,0,1,1,9,32.9394322,-106.9124595,1394,2024,6,21,22,56,51,20,21,243,11,1.7,0.9,1.4,0,0,0,0,0,0,0,29,0,22,0,0,0,0,9,0,0,0,0,0,27,0,23,26,0,0,21,29,0,0,0,24
6,6583,4,,1.12,3,   boost,101.99,85766,1384.06,62.5,     NaN,33.7,4,3.99,3.99,0.03,0,0,64.27,64.39,0,0,0,0,    NaN,4.01,0,0,0.02,0,1,1,9,32.9394322,-106.9124595,1394,2024,6,21,22,56,51,20,21,243,11,1.7,0.9,1.4,0,0,0,0,0,0,0,29,0,22,0,0,0,0,9,0,0,0,0,0,27,0,23,26,0,0,21,29,0,0,0,24
6,6583,4,,1.13,3,   boost,103.46,85734,1387.1,65.54,     NaN,33.7,4,3.99,3.99,0.03,0,0,64.27,64.39,0,0,0,0,    NaN,4.01,0,0,0.02,0,1,1,9,32.9394322,-106.9124595,1394,2024,6,21,22,56,51,20,21,243,11,1.7,0.9,1.4,0,0,0,0,0,0,0,29,0,22,0,0,0,0,9,0,0,0,0,0,27,0,23,26,0,0,21,29,0,0,0,24
6,6583,4,,1.14,3,   boost,103.95,85736,1386.91,65.35,     NaN,33.7,4,3.99,3.99,0.03,0,0,64.27,64.39,0,0,0,0,    NaN,4.01,0,0,0.02,0,1,1,9,32.9394322,-106.9124595,1394,2024,6,21,22,56,51,20,21,243,11,1.7,0.9,1.4,0,0,0,0,0,0,0,29,0,22,0,0,0,0,9,0,0,0,0,0,27,0,23,26,0,0,21,29,0,0,0,24
6,6583,4,,1.15,3,   boost,104.93,85723,1388.15,66.59,     NaN,33.7,4,3.99,3.99,0.03,0,0,64.27,64.39,0,0,0,0,    NaN,4.01,0,0,0.02,0,1,1,9,32.9394322,-106.9124595,1394,2024,6,21,22,56,51,20,21,243,11,1.7,0.9,1.4,0,0,0,0,0,0,0,29,0,22,0,0,0,0,9,0,0,0,0,0,27,0,23,26,0,0,21,29,0,0,0,24
6,6583,4,,1.16,3,   boost,102.48,85720,1388.44,66.88,     NaN,33.7,4,3.99,3.99,0.03,0,0,64.27,64.39,0,0,0,0,    NaN,4.01,0,0,0.02,0,1,1,9,32.9394322,-106.9124595,1394,2024,6,21,22,56,51,20,21,243,11,1.7,0.9,1.4,0,0,0,0,0,0,0,29,0,22,0,0,0,0,9,0,0,0,0,0,27,0,23,26,0,0,21,29,0,0,0,24
6,6583,4,,1.17,3,   boost,101.99,85706,1389.77,68.21,     NaN,33.7,4,3.99,3.99,0.03,0,0,64.27,64.39,0,0,0,0,    NaN,4.01,0,0,0.02,0,1,1,9,32.9394322,-106.9124595,1394,2024,6,21,22,56,51,20,21,243,11,1.7,0.9,1.4,0,0,0,0,0,0,0,29,0,22,0,0,0,0,9,0,0,0,0,0,27,0,23,26,0,0,21,29,0,0,0,24
6,6583,4,,1.18,3,   boost,103.95,85697,1390.63,69.07,     NaN,33.6,4,3.99,3.99,0.03,0,0,64.27,64.39,0,0,0,0,    NaN,4.01,0,0,0.02,0,1,1,9,32.9394322,-106.9124595,1394,2024,6,21,22,56,51,20,21,243,11,1.7,0.9,1.4,0,0,0,0,0,0,0,29,0,22,0,0,0,0,9,0,0,0,0,0,27,0,23,26,0,0,21,29,0,0,0,24
6,6583,4,,1.19,3,   boost,105.91,85698,1390.54,68.98,     NaN,33.7,4,3.99,3.99,0.03,0,0,64.27,64.39,0,0,0,0,    NaN,4.01,0,0,0.02,0,1,1,9,32.9394322,-106.9124595,1394,2024,6,21,22,56,51,20,21,243,11,1.7,0.9,1.4,0,0,0,0,0,0,0,29,0,22,0,0,0,0,9,0,0,0,0,0,27,0,23,26,0,0,21,29,0,0,0,24
6,6583,4,,1.2,3,   boost,103.46,85676,1392.63,71.07,     NaN,33.7,4,3.99,3.99,0.03,0,0,64.27,64.39,0,0,0,0,    NaN,4.01,0,0,0.02,0,1,1,9,32.9394322,-106.9124595,1394,2024,6,21,22,56,51,20,21,243,11,1.7,0.9,1.4,0,0,0,0,0,0,0,29,0,22,0,0,0,0,9,0,0,0,0,0,27,0,23,26,0,0,21,29,0,0,0,24
6,6583,4,,1.21,3,   boost,104.93,85668,1393.4,71.84,     NaN,33.7,4,3.99,3.99,0.03,0,0,64.27,64.39,0,0,0,0,    NaN,4.01,0,0,0.02,0,1,1,9,32.9394322,-106.9124595,1394,2024,6,21,22,56,51,20,21,243,11,1.7,0.9,1.4,0,0,0,0,0,0,0,29,0,22,0,0,0,0,9,0,0,0,0,0,27,0,23,26,0,0,21,29,0,0,0,24
6,6583,4,,1.22,3,   boost,106.89,85667,1393.49,71.93,     NaN,33.7,4,3.99,3.99,0.03,0,0,64.27,64.39,0,0,0,0,    NaN,4.01,0,0,0.02,0,1,1,9,32.9394322,-106.9124595,1394,2024,6,21,22,56,51,20,21,243,11,1.7,0.9,1.4,0,0,0,0,0,0,0,29,0,22,0,0,0,0,9,0,0,0,0,0,27,0,23,26,0,0,21,29,0,0,0,24
6,6583,4,,1.23,3,   boost,107.38,85650,1395.11,73.55,     NaN,33.7,4,3.99,3.99,0.03,0,0,64.27,64.39,0,0,0,0,    NaN,4.01,0,0,0.02,0,1,1,9,32.9394322,-106.9124595,1394,2024,6,21,22,56,51,20,21,243,11,1.7,0.9,1.4,0,0,0,0,0,0,0,29,0,22,0,0,0,0,9,0,0,0,0,0,27,0,23,26,0,0,21,29,0,0,0,24
6,6583,4,,1.24,3,   boost,104.44,85642,1395.88,74.32,     NaN,33.7,4,3.99,3.99,0.03,0,0,64.27,64.39,0,0,0,0,    NaN,4.01,0,0,0.02,0,1,1,9,32.9394322,-106.9124595,1394,2024,6,21,22,56,51,20,21,243,11,1.7,0.9,1.4,0,0,0,0,0,0,0,29,0,22,0,0,0,0,9,0,0,0,0,0,27,0,23,26,0,0,21,29,0,0,0,24
6,6583,4,,1.25,3,   boost,103.95,85622,1397.78,76.22,     NaN,33.7,4,3.99,3.99,0.03,0,0,64.27,64.39,0,0,0,0,    NaN,4.01,0,0,0.02,0,1,1,9,32.9394322,-106.9124595,1394,2024,6,21,22,56,51,20,21,243,11,1.7,0.9,1.4,0,0,0,0,0,0,0,29,0,22,0,0,0,0,9,0,0,0,0,0,27,0,23,26,0,0,21,29,0,0,0,24
6,6583,4,,1.26,3,   boost,102.97,85609,1399.02,77.46,     NaN,33.7,4,3.99,3.99,0.03,0,0,64.27,64.39,0,0,0,0,    NaN,4.01,0,0,0.02,0,1,1,9,32.9394322,-106.9124595,1394,2024,6,21,22,56,51,20,21,243,11,1.7,0.9,1.4,0,0,0,0,0,0,0,29,0,22,0,0,0,0,9,0,0,0,0,0,27,0,23,26,0,0,21,29,0,0,0,24
6,6583,4,,1.27,3,   boost,103.95,85597,1400.17,78.61,     NaN,33.7,4,3.99,3.99,0.03,0,0,64.27,64.39,0,0,0,0,    NaN,4.01,0,0,0.02,0,1,1,9,32.9394322,-106.9124595,1394,2024,6,21,22,56,51,20,21,243,11,1.7,0.9,1.4,0,0,0,0,0,0,0,29,0,22,0,0,0,0,9,0,0,0,0,0,27,0,23,26,0,0,21,29,0,0,0,24
6,6583,4,,1.28,3,   boost,103.95,85580,1401.79,80.23,     NaN,33.7,4,3.99,3.99,0.03,0,0,64.27,64.39,0,0,0,0,    NaN,4.01,0,0,0.02,0,1,1,9,32.9394322,-106.9124595,1394,2024,6,21,22,56,51,20,21,243,11,1.7,0.9,1.4,0,0,0,0,0,0,0,29,0,22,0,0,0,0,9,0,0,0,0,0,27,0,23,26,0,0,21,29,0,0,0,24
6,6583,4,,1.29,3,   boost,104.44,85574,1402.36,80.8,     NaN,33.7,4,3.99,3.99,0.03,0,0,64.27,64.39,0,0,0,0,    NaN,4.01,0,0,0.02,0,1,1,9,32.9394322,-106.9124595,1394,2024,6,21,22,56,51,20,21,243,11,1.7,0.9,1.4,0,0,0,0,0,0,0,29,0,22,0,0,0,0,9,0,0,0,0,0,27,0,23,26,0,0,21,29,0,0,0,24
6,6583,4,,1.3,3,   boost,102.48,85557,1403.99,82.43,     NaN,33.7,4,4,4,0.03,0,0,64.27,64.39,0,0,0,0,    NaN,4.01,0,0,0.03,0,1,1,9,32.9394322,-106.9124595,1394,2024,6,21,22,56,51,20,21,243,11,1.7,0.9,1.4,0,0,0,0,0,0,0,29,0,22,0,0,0,0,9,0,0,0,0,0,27,0,23,26,0,0,21,29,0,0,0,24
6,6583,4,,1.3,3,   boost,102.48,85557,1403.99,82.43,     NaN,33.7,4,4,4,0.03,0,0,64.27,64.39,0,0,0,0,    NaN,4.01,0,0,0.03,0,1,1,9,32.9394322,-106.9124595,1394,2024,6,21,22,56,51,20,21,243,11,1.7,0.9,1.4,0,0,0,0,0,0,0,29,0,22,0,0,0,0,9,0,0,0,0,0,27,0,23,26,0,0,21,29,0,0,0,24
6,6583,4,,1.31,3,   boost,104.44,85530,1406.57,85.01,     NaN,33.6,4,4,4,0.03,0,0,64.33,64.46,0,0,0,0,    NaN,4.01,0,0,0.03,0,1,1,9,32.9394322,-106.9124595,1394,2024,6,21,22,56,51,20,21,243,11,1.7,0.9,1.4,0,0,0,0,0,0,0,29,0,22,0,0,0,0,9,0,0,0,0,0,27,0,23,26,0,0,21,29,0,0,0,24
6,6583,4,,1.32,3,   boost,103.95,85520,1407.52,85.96,     NaN,33.7,4,4,4,0.03,0,0,64.33,64.46,0,0,0,0,    NaN,4.01,0,0,0.03,0,1,1,9,32.9394322,-106.9124595,1394,2024,6,21,22,56,51,20,21,243,11,1.7,0.9,1.4,0,0,0,0,0,0,0,29,0,22,0,0,0,0,9,0,0,0,0,0,27,0,23,26,0,0,21,29,0,0,0,24
6,6583,4,,1.33,3,   boost,103.46,85497,1409.72,88.16,     NaN,33.7,4,4,4,0.03,0,0,64.33,64.46,0,0,0,0,    NaN,4.01,0,0,0.03,0,1,1,9,32.9394322,-106.9124595,1394,2024,6,21,22,56,51,20,21,243,11,1.7,0.9,1.4,0,0,0,0,0,0,0,29,0,22,0,0,0,0,9,0,0,0,0,0,27,0,23,26,0,0,21,29,0,0,0,24
6,6583,4,,1.34,3,   boost,104.44,85495,1409.91,88.35,     NaN,33.6,4,4,4,0.03,0,0,64.33,64.46,0,0,0,0,    NaN,4.01,0,0,0.03,0,1,1,9,32.9394322,-106.9124595,1394,2024,6,21,22,56,51,20,21,243,11,1.7,0.9,1.4,0,0,0,0,0,0,0,29,0,22,0,0,0,0,9,0,0,0,0,0,27,0,23,26,0,0,21,29,0,0,0,24
6,6583,4,,1.35,3,   boost,104.44,85466,1412.68,91.12,     NaN,33.7,4,4,4,0.03,0,0,64.33,64.46,0,0,0,0,    NaN,4.01,0,0,0.03,0,1,1,9,32.9394322,-106.9124595,1394,2024,6,21,22,56,51,20,21,243,11,1.7,0.9,1.4,0,0,0,0,0,0,0,29,0,22,0,0,0,0,9,0,0,0,0,0,27,0,23,26,0,0,21,29,0,0,0,24
6,6583,4,,1.36,3,   boost,103.46,85459,1413.35,91.79,     NaN,33.7,4,4,4,0.03,0,0,64.33,64.46,0,0,0,0,    NaN,4.01,0,0,0.03,0,1,1,9,32.9394322,-106.9124595,1394,2024,6,21,22,56,51,20,21,243,11,1.7,0.9,1.4,0,0,0,0,0,0,0,29,0,22,0,0,0,0,9,0,0,0,0,0,27,0,23,26,0,0,21,29,0,0,0,24
6,6583,4,,1.37,3,   boost,102.48,85444,1414.78,93.22,     NaN,33.6,4,4,4,0.03,0,0,64.33,64.46,0,0,0,0,    NaN,4.01,0,0,0.03,0,1,1,9,32.9394322,-106.9124595,1394,2024,6,21,22,56,51,20,21,243,11,1.7,0.9,1.4,0,0,0,0,0,0,0,29,0,22,0,0,0,0,9,0,0,0,0,0,27,0,23,26,0,0,21,29,0,0,0,24
6,6583,4,,1.38,3,   boost,103.95,85437,1415.45,93.89,     NaN,33.7,4,4,4,0.03,0,0,64.33,64.46,0,0,0,0,    NaN,4.01,0,0,0.03,0,1,1,9,32.9394322,-106.9124595,1394,2024,6,21,22,56,51,20,21,243,11,1.7,0.9,1.4,0,0,0,0,0,0,0,29,0,22,0,0,0,0,9,0,0,0,0,0,27,0,23,26,0,0,21,29,0,0,0,24
6,6583,4,,1.39,3,   boost,104.44,85405,1418.51,96.95,     NaN,33.7,4,4,4,0.03,0,0,64.33,64.46,0,0,0,0,    NaN,4.01,0,0,0.03,0,1,1,9,32.9394322,-106.9124595,1394,2024,6,21,22,56,51,20,21,243,11,1.7,0.9,1.4,0,0,0,0,0,0,0,29,0,22,0,0,0,0,9,0,0,0,0,0,27,0,23,26,0,0,21,29,0,0,0,24
6,6583,4,,1.4,3,   boost,103.46,85392,1419.75,98.19,     NaN,33.7,4,4,4,0.03,0,0,64.33,64.46,0,0,0,0,    NaN,4.01,0,0,0.03,0,1,1,9,32.9394322,-106.9124595,1394,2024,6,21,22,56,51,20,21,243,11,1.7,0.9,1.4,0,0,0,0,0,0,0,29,0,22,0,0,0,0,9,0,0,0,0,0,27,0,23,26,0,0,21,29,0,0,0,24
6,6583,4,,1.41,3,   boost,103.95,85399,1419.08,97.52,     NaN,33.7,4,4,4,0.03,0,0,64.33,64.46,0,0,0,0,    NaN,4.01,0,0,0.03,0,1,1,9,32.9394322,-106.9124595,1394,2024,6,21,22,56,51,20,21,243,11,1.7,0.9,1.4,0,0,0,0,0,0,0,29,0,22,0,0,0,0,9,0,0,0,0,0,27,0,23,26,0,0,21,29,0,0,0,24
6,6583,4,,1.42,3,   boost,104.44,85365,1422.33,100.77,     NaN,33.7,4,4,4,0.03,0,0,64.33,64.46,0,0,0,0,    NaN,4.01,0,0,0.03,0,1,1,9,32.9394322,-106.9124595,1394,2024,6,21,22,56,51,20,21,243,11,1.7,0.9,1.4,0,0,0,0,0,0,0,29,0,22,0,0,0,0,9,0,0,0,0,0,27,0,23,26,0,0,21,29,0,0,0,24
